{"Bactris maraja Mart.": [{"decimalLatitude": 7.079033, "decimalLongitude": -74.177467, "eventDate": "2017-02-13T00:00:00.000+0000", "country": "Colombia", "stateProvince": "Antioquia", "locality": "Pto. Matilde, finca la Bufalera"}, {"decimalLatitude": -4.039869, "decimalLongitude": -69.992969, "eventDate": "2017-04-24T00:00:00.000+0000", "country": "Colombia", "stateProvince": "Amazonas", "locality": "Carretera a Tarapac\u00e1, km 22, bosque 1 km al E de la carretera"}, {"decimalLatitude": 1.606111, "decimalLongitude": -75.610278, "eventDate": "2016-01-23T00:00:00.000+0000", "country": "Colombia", "stateProvince": "Caquet\u00e1", "locality": "Jard\u00edn bot\u00e1nico Uniamazonia"}, {"decimalLatitude": 2.36, "decimalLongitude": -72.82, "eventDate": "2016-10-20T00:00:00.000+0000", "country": "Colombia", "stateProvince": "Guaviare", "locality": "vda. El Capricho, sector cerro El Capricho, bosque de tierra firme con dosel cerrado de hasta 30-35m de altura, capa de hojarasca medianamente gruesa de hasta 5-10cm de espesor"}, {"decimalLatitude": 2.36, "decimalLongitude": -72.82, "eventDate": "2016-10-20T00:00:00.000+0000", "country": "Colombia", "stateProvince": "Guaviare", "locality": "vda. El Capricho, sector cerro El Capricho, bosque de tierra firme con dosel cerrado de hasta 30-35m de altura, capa de hojarasca medianamente gruesa de hasta 5-10cm de espesor"}, {"decimalLatitude": 2.01, "decimalLongitude": -73.04, "eventDate": "2016-11-11T00:00:00.000+0000", "country": "Colombia", "stateProvince": "Guaviare", "locality": "r\u00edo Itilla margen izq., bosque muy abierto con emergentes, sotobosque denso y poco diverso, terrazas con drenaje de 3m de profundidad y 2-3m por encima de la llanura aluvial, relieve plano, suelos con mucha hojarasca de 5-10 cm de profundidad"}, {"decimalLatitude": 2.01, "decimalLongitude": -73.04, "eventDate": "2016-11-11T00:00:00.000+0000", "country": "Colombia", "stateProvince": "Guaviare", "locality": "r\u00edo Itilla margen izq., bosque muy abierto con emergentes, sotobosque denso y poco diverso, terrazas con drenaje de 3m de profundidad y 2-3m por encima de la llanura aluvial, relieve plano, suelos con mucha hojarasca de 5-10 cm de profundidad"}, {"decimalLatitude": 2.02, "decimalLongitude": -73.05, "eventDate": "2016-11-06T00:00:00.000+0000", "country": "Colombia", "stateProvince": "Guaviare", "locality": "orilla del r\u00edo Itilla, entre la vda. Brisas del Itilla y Cachivera el Diablo, bosque bajo de 15m con emergentes, llanura aluvial con inundaciones hasta de 3 meses, sotobosque denso, suelo mal drenados y poca peresencia de \u00e1rboles"}, {"decimalLatitude": 2.01, "decimalLongitude": -73.04, "eventDate": "2016-11-11T00:00:00.000+0000", "country": "Colombia", "stateProvince": "Guaviare", "locality": "r\u00edo Itilla margen izq., bosque muy abierto con emergentes, sotobosque denso y poco diverso, terrazas con drenaje de 3m de profundidad y 2-3m por encima de la llanura aluvial, relieve plano, suelos con mucha hojarasca de 5-10 cm de profundidad"}, {"decimalLatitude": 2.01, "decimalLongitude": -73.04, "eventDate": "2016-11-11T00:00:00.000+0000", "country": "Colombia", "stateProvince": "Guaviare", "locality": "r\u00edo Itilla margen izq., bosque muy abierto con emergentes, sotobosque denso y poco diverso, terrazas con drenaje de 3m de profundidad y 2-3m por encima de la llanura aluvial, relieve plano, suelos con mucha hojarasca de 5-10 cm de profundidad"}, {"decimalLatitude": 2.02, "decimalLongitude": -73.05, "eventDate": "2016-11-06T00:00:00.000+0000", "country": "Colombia", "stateProvince": "Guaviare", "locality": "orilla del r\u00edo Itilla, entre la vda. Brisas del Itilla y Cachivera el Diablo, bosque bajo de 15m con emergentes, llanura aluvial con inundaciones hasta de 3 meses, sotobosque denso, suelo mal drenados y poca peresencia de \u00e1rboles"}, {"decimalLatitude": 2.02, "decimalLongitude": -73.05, "eventDate": "2016-11-06T00:00:00.000+0000", "country": "Colombia", "stateProvince": "Guaviare", "locality": "orilla del r\u00edo Itilla, entre la vda. Brisas del Itilla y Cachivera el Diablo, bosque bajo de 15m con emergentes, llanura aluvial con inundaciones hasta de 3 meses, sotobosque denso, suelo mal drenados y poca peresencia de \u00e1rboles"}, {"decimalLatitude": 2.01, "decimalLongitude": -73.04, "eventDate": "2016-11-11T00:00:00.000+0000", "country": "Colombia", "stateProvince": "Guaviare", "locality": "r\u00edo Itilla margen izq., bosque muy abierto con emergentes, sotobosque denso y poco diverso, terrazas con drenaje de 3m de profundidad y 2-3m por encima de la llanura aluvial, relieve plano, suelos con mucha hojarasca de 5-10 cm de profundidad"}, {"decimalLatitude": 2.01, "decimalLongitude": -73.04, "eventDate": "2016-11-11T00:00:00.000+0000", "country": "Colombia", "stateProvince": "Guaviare", "locality": "r\u00edo Itilla margen izq., bosque muy abierto con emergentes, sotobosque denso y poco diverso, terrazas con drenaje de 3m de profundidad y 2-3m por encima de la llanura aluvial, relieve plano, suelos con mucha hojarasca de 5-10 cm de profundidad"}, {"decimalLatitude": -11.041667, "decimalLongitude": -55.329722, "eventDate": "2015-03-23T00:00:00.000+0000", "country": "Brazil", "stateProvince": "Mato Grosso", "locality": "Resgate da Flora da UHE Col\u00edder, Lote G de supress\u00e3o"}, {"decimalLatitude": -3.78, "decimalLongitude": -70.64, "eventDate": "2015-04-22T00:00:00.000+0000", "country": "Colombia", "stateProvince": "Amazonas", "locality": "comunidad San Juan de Atacuari, bosque inundable"}, {"decimalLatitude": -11.022222, "decimalLongitude": -55.371111, "eventDate": "2015-04-07T00:00:00.000+0000", "country": "Brazil", "stateProvince": "Mato Grosso", "locality": "Resgate da Flora da UHE Col\u00edder, Lote F de supress\u00e3o"}, {"decimalLatitude": -3.78, "decimalLongitude": -70.64, "eventDate": "2015-04-22T00:00:00.000+0000", "country": "Colombia", "stateProvince": "Amazonas", "locality": "comunidad San Juan de Atacuari"}, {"decimalLatitude": -3.78, "decimalLongitude": -70.64, "eventDate": "2015-04-22T00:00:00.000+0000", "country": "Colombia", "stateProvince": "Amazonas", "locality": "comunidad San Juan de Atacuari, bosque inundable"}, {"decimalLatitude": -9.44, "decimalLongitude": -64.85, "eventDate": "2014-02-20T00:00:00.000+0000", "country": "Brazil", "stateProvince": "Rond\u00f4nia", "locality": "M\u00f3dulo Cai\u00e7ara. T1, 3100 m, Margem esquerda do rio Madeira, Parque Nacional Mapinguari."}, {"decimalLatitude": -9.622222, "decimalLongitude": -74.928611, "eventDate": "2014-05-27T00:00:00.000+0000", "country": "Peru", "stateProvince": "Hu\u00e1nuco", "locality": "Distrito Yuyapichis. \u00c1rea de Conservaci\u00f3n Privada Panguana."}, {"decimalLatitude": 3.66, "decimalLongitude": -68.16, "eventDate": "2014-09-12T00:00:00.000+0000", "country": "Colombia", "stateProvince": "Guain\u00eda", "locality": "comunidad Yur\u00ed"}, {"decimalLatitude": 3.66, "decimalLongitude": -68.16, "eventDate": "2014-09-12T00:00:00.000+0000", "country": "Colombia", "stateProvince": "Guain\u00eda", "locality": "comunidad Yur\u00ed"}, {"decimalLatitude": 3.66, "decimalLongitude": -68.16, "eventDate": "2014-09-12T00:00:00.000+0000", "country": "Colombia", "stateProvince": "Guain\u00eda", "locality": "comunidad Yur\u00ed"}, {"decimalLatitude": 3.66, "decimalLongitude": -68.16, "eventDate": "2014-09-12T00:00:00.000+0000", "country": "Colombia", "stateProvince": "Guain\u00eda", "locality": "comunidad Yur\u00ed"}, {"decimalLatitude": 8.233639, "decimalLongitude": -77.195139, "eventDate": "2014-11-18T00:00:00.000+0000", "country": "Colombia", "stateProvince": "Choc\u00f3", "locality": "R\u00edo Bonito, finca de la familia Toro"}, {"decimalLatitude": 8.233639, "decimalLongitude": -77.195138, "eventDate": "2014-11-18T00:00:00.000+0000", "country": "Colombia", "stateProvince": "Choc\u00f3", "locality": "R\u00edo Bonito, finca de la familia Toro"}, {"decimalLatitude": -2.297056, "decimalLongitude": -54.52, "eventDate": "2013-06-18T00:00:00.000+0000", "country": "Brazil", "stateProvince": "Par\u00e1", "locality": "Comunidade Tapar\u00e1 Grande, atraz do canal principal \u00e0 direita sentido Santar\u00e9m - Tapar\u00e1"}, {"decimalLatitude": 8.647056, "decimalLongitude": -77.407278, "eventDate": "2013-11-19T00:00:00.000+0000", "country": "Colombia", "stateProvince": "Choc\u00f3", "locality": "Vereda el Brillante, R\u00edo Muerto, brazo derecho, La Paloma"}, {"decimalLatitude": 8.647056, "decimalLongitude": -77.407278, "eventDate": "2013-11-19T00:00:00.000+0000", "country": "Colombia", "stateProvince": "Choc\u00f3", "locality": "Vereda el Brillante, R\u00edo Muerto, brazo derecho, La Paloma"}, {"decimalLatitude": 8.580389, "decimalLongitude": -77.407278, "eventDate": "2013-11-19T00:00:00.000+0000", "country": "Colombia", "stateProvince": "Choc\u00f3", "locality": "El Brillante, r\u00edo Muerto, brazo derecho, La Paloma, bosque al occidente de la casa, en el camino a Panama?"}, {"decimalLatitude": "", "decimalLongitude": "", "eventDate": "2012-03-30T00:00:00.000+0000", "country": "Brazil", "stateProvince": "Amazonas", "locality": "R\u00edo Juru\u00e1. 67.5 km SW of Carauari. 3.6 km SE of Bom Jesus. Primary forest on terra firme"}, {"decimalLatitude": "", "decimalLongitude": "", "eventDate": "2012-03-28T00:00:00.000+0000", "country": "Brazil", "stateProvince": "Amazonas", "locality": "R\u00edo Juru\u00e1. 43 km SW of Carauari. 2.6 km W of Roque. Primary forest on terrace"}, {"decimalLatitude": "", "decimalLongitude": "", "eventDate": "2012-03-26T00:00:00.000+0000", "country": "Brazil", "stateProvince": "Amazonas", "locality": "R\u00edo Juru\u00e1. 32.5 km SW of Carauari. Novo Horizonte, 2 km NE of village. Primary forest on terrace. Terra firme"}, {"decimalLatitude": "", "decimalLongitude": "", "eventDate": "2012-04-02T00:00:00.000+0000", "country": "Brazil", "stateProvince": "Amazonas", "locality": "R\u00edo Juru\u00e1. 151 km SW of Carauari. 0.3 km NW of Xibahua. Primary forest on floodplain."}, {"decimalLatitude": "", "decimalLongitude": "", "eventDate": "2012-04-01T00:00:00.000+0000", "country": "Brazil", "stateProvince": "Amazonas", "locality": "R\u00edo Juru\u00e1. 124 km SW og Carauari. 2.7 km N of Pupuriha. Primary forest on terrace. Terra firme"}, {"decimalLatitude": "", "decimalLongitude": "", "eventDate": "2012-04-04T00:00:00.000+0000", "country": "Brazil", "stateProvince": "Amazonas", "locality": "R\u00edo Juru\u00e1. 172 km SW of Carauari. 9.5 km W of Boca Xurua. Primary forest on terrace"}, {"decimalLatitude": "", "decimalLongitude": "", "eventDate": "2012-04-06T00:00:00.000+0000", "country": "Brazil", "stateProvince": "Amazonas", "locality": "R\u00edo Juru\u00e1. 206 km SW of Carauari. 1 km NE of Boa Vista. Primary forest on terra firme"}, {"decimalLatitude": "", "decimalLongitude": "", "eventDate": "2012-05-28T00:00:00.000+0000", "country": "Brazil", "stateProvince": "Par\u00e1", "locality": "Abaetetuba"}, {"decimalLatitude": -10.330556, "decimalLongitude": -75.2575, "eventDate": "2012-06-06T00:00:00.000+0000", "country": "Peru", "stateProvince": "Pasco", "locality": "Dist. Palcaz\u00fa. Sector Paujil del Parque Nacional Yanachaga Chemill\u00e9n. Trocha camino a Quebrada \"Venado\"."}, {"decimalLatitude": -10.350833, "decimalLongitude": -75.249722, "eventDate": "2012-07-18T00:00:00.000+0000", "country": "Peru", "stateProvince": "Pasco", "locality": "Distrito Palcaz\u00fa. Parque Nacional Yanachaga Chemill\u00e9n. Parcela Permanente VGYANCh 01 - TEAM."}, {"decimalLatitude": -10.331389, "decimalLongitude": -75.260556, "eventDate": "2012-08-29T00:00:00.000+0000", "country": "Peru", "stateProvince": "Pasco", "locality": "Distrito Palcaz\u00fa. Parque Nacional Yanachaga Chemill\u00e9n. Alrededores de la Estaci\u00f3n Biol\u00f3gica Paujil."}, {"decimalLatitude": -12.51, "decimalLongitude": -68.98, "eventDate": "2011-02-24T00:00:00.000+0000", "country": "Peru", "stateProvince": "Madre de Dios", "locality": "Peru, Madre de Dios province, Reservar Ecologica Taricaya, Madre de Dios river,  23 km north east of Puerto Maldonado, south on bank. Tropical flood-plain forest on flat ground with few wet depressions. Tree density low in some places. Generally low trees"}, {"decimalLatitude": -12.51, "decimalLongitude": -68.98, "eventDate": "2011-02-24T00:00:00.000+0000", "country": "Peru", "stateProvince": "Madre de Dios", "locality": "Peru, Madre de Dios province, Reservar Ecologica Taricaya, Madre de Dios river,  23 km north east of Puerto Maldonado, south on bank. Tropical flood-plain forest on flat ground with few wet depressions. Tree density low in some places. Generally low trees"}, {"decimalLatitude": -12.51, "decimalLongitude": -68.98, "eventDate": "2011-02-24T00:00:00.000+0000", "country": "Peru", "stateProvince": "Madre de Dios", "locality": "Peru, Madre de Dios province, Reservar Ecologica Taricaya, Madre de Dios river,  23 km north east of Puerto Maldonado, south on bank. Tropical flood-plain forest on flat ground with few wet depressions. Tree density low in some places. Generally low trees"}, {"decimalLatitude": -12.51, "decimalLongitude": -68.98, "eventDate": "2011-02-24T00:00:00.000+0000", "country": "Peru", "stateProvince": "Madre de Dios", "locality": "Peru, Madre de Dios province, Reservar Ecologica Taricaya, Madre de Dios river,  23 km north east of Puerto Maldonado, south on bank. Tropical flood-plain forest on flat ground with few wet depressions. Tree density low in some places. Generally low trees"}, {"decimalLatitude": -12.51, "decimalLongitude": -68.98, "eventDate": "2011-02-24T00:00:00.000+0000", "country": "Peru", "stateProvince": "Madre de Dios", "locality": "Peru, Madre de Dios province, Reservar Ecologica Taricaya, Madre de Dios river,  23 km north east of Puerto Maldonado, south on bank. Tropical flood-plain forest on flat ground with few wet depressions. Tree density low in some places. Generally low trees"}, {"decimalLatitude": -12.51, "decimalLongitude": -68.98, "eventDate": "2011-02-24T00:00:00.000+0000", "country": "Peru", "stateProvince": "Madre de Dios", "locality": "Peru, Madre de Dios province, Reservar Ecologica Taricaya, Madre de Dios river,  23 km north east of Puerto Maldonado, south on bank. Tropical flood-plain forest on flat ground with few wet depressions. Tree density low in some places. Generally low trees"}, {"decimalLatitude": -12.51, "decimalLongitude": -68.98, "eventDate": "2011-02-24T00:00:00.000+0000", "country": "Peru", "stateProvince": "Madre de Dios", "locality": "Peru, Madre de Dios province, Reservar Ecologica Taricaya, Madre de Dios river,  23 km north east of Puerto Maldonado, south on bank. Tropical flood-plain forest on flat ground with few wet depressions. Tree density low in some places. Generally low trees"}, {"decimalLatitude": -12.51, "decimalLongitude": -68.98, "eventDate": "2011-02-24T00:00:00.000+0000", "country": "Peru", "stateProvince": "Madre de Dios", "locality": "Peru, Madre de Dios province, Reservar Ecologica Taricaya, Madre de Dios river,  23 km north east of Puerto Maldonado, south on bank. Tropical flood-plain forest on flat ground with few wet depressions. Tree density low in some places. Generally low trees"}, {"decimalLatitude": -12.51, "decimalLongitude": -68.98, "eventDate": "2011-02-24T00:00:00.000+0000", "country": "Peru", "stateProvince": "Madre de Dios", "locality": "Peru, Madre de Dios province, Reservar Ecologica Taricaya, Madre de Dios river,  23 km north east of Puerto Maldonado, south on bank. Tropical flood-plain forest on flat ground with few wet depressions. Tree density low in some places. Generally low trees"}, {"decimalLatitude": -12.51, "decimalLongitude": -68.98, "eventDate": "2011-02-24T00:00:00.000+0000", "country": "Peru", "stateProvince": "Madre de Dios", "locality": "Peru, Madre de Dios province, Reservar Ecologica Taricaya, Madre de Dios river,  23 km north east of Puerto Maldonado, south on bank. Tropical flood-plain forest on flat ground with few wet depressions. Tree density low in some places. Generally low trees"}, {"decimalLatitude": -12.51, "decimalLongitude": -68.98, "eventDate": "2011-02-24T00:00:00.000+0000", "country": "Peru", "stateProvince": "Madre de Dios", "locality": "Peru, Madre de Dios province, Reservar Ecologica Taricaya, Madre de Dios river,  23 km north east of Puerto Maldonado, south on bank. Tropical flood-plain forest on flat ground with few wet depressions. Tree density low in some places. Generally low trees"}, {"decimalLatitude": -12.51, "decimalLongitude": -68.82, "eventDate": "2011-03-25T00:00:00.000+0000", "country": "Peru", "stateProvince": "Madre de Dios", "locality": "Peru, Madre de Dios province, Village: Palma Real; River: Madre de Dios; Biflod: Palma Real Grande; 39 km east of Puerto Maldonad. Primary tropical rain forest on terra firme with many tree falls and natural disturbance. Area used for extraction of Brasil"}, {"decimalLatitude": -12.51, "decimalLongitude": -68.82, "eventDate": "2011-03-25T00:00:00.000+0000", "country": "Peru", "stateProvince": "Madre de Dios", "locality": "Peru, Madre de Dios province, Village: Palma Real; River: Madre de Dios; Biflod: Palma Real Grande; 39 km east of Puerto Maldonad. Primary tropical rain forest on terra firme with many tree falls and natural disturbance. Area used for extraction of Brasil"}, {"decimalLatitude": -12.52, "decimalLongitude": -69.04, "eventDate": "2011-03-21T00:00:00.000+0000", "country": "Peru", "stateProvince": "Madre de Dios", "locality": "Peru, Madre de Dios province, Village Inka Terra Lodge, Madre de Dios river, 16.5 km east of Puerto Maldonado, east on bank, Estacion Sientifica, Ita. Flat flood-plain forest with dry parts interrupted by inundated, elongate low sections. 25 m tall trees."}, {"decimalLatitude": -12.46, "decimalLongitude": -68.86, "eventDate": "2011-03-29T00:00:00.000+0000", "country": "Peru", "stateProvince": "Madre de Dios", "locality": "Peru, Madre de Dios province, Village: Palma Real; River: Madre de Dios; 37 km east of Puerto Maldonado. Tropical rain forest on terra firme. First half old growth with straight trunks and very open understory. Last half with many natural tree falls and g"}, {"decimalLatitude": -12.46, "decimalLongitude": -68.86, "eventDate": "2011-03-29T00:00:00.000+0000", "country": "Peru", "stateProvince": "Madre de Dios", "locality": "Peru, Madre de Dios province, Village: Palma Real; River: Madre de Dios; 37 km east of Puerto Maldonado. Tropical rain forest on terra firme. First half old growth with straight trunks and very open understory. Last half with many natural tree falls and g"}, {"decimalLatitude": -12.51, "decimalLongitude": -68.82, "eventDate": "2011-03-25T00:00:00.000+0000", "country": "Peru", "stateProvince": "Madre de Dios", "locality": "Peru, Madre de Dios province, Village: Palma Real; River: Madre de Dios; Biflod: Palma Real Grande; 39 km east of Puerto Maldonad. Primary tropical rain forest on terra firme with many tree falls and natural disturbance. Area used for extraction of Brasil"}, {"decimalLatitude": -12.49, "decimalLongitude": -68.98, "eventDate": "2011-03-22T00:00:00.000+0000", "country": "Peru", "stateProvince": "Madre de Dios", "locality": "Peru, Madre de Dios province, River: Gamitana & Agua Negra & Lo Boyo, 23.5 km east of Puerto Maldonado. Rather open forest. Trees 30 m high. Much low canopy inbetween.. Transect: HB409 Subunit: 24"}, {"decimalLatitude": -12.52, "decimalLongitude": -68.97, "eventDate": "2011-03-15T00:00:00.000+0000", "country": "Peru", "stateProvince": "Madre de Dios", "locality": "Peru, Madre de Dios province, Reservar Ecologica Taricaya, Madre de Dios river,  23 km north east of Puerto Maldonado, south on bank. Tropical flood-plain forest on flat ground with few wet depressions - only parts of transect. Tree density low in some pl"}, {"decimalLatitude": -12.49, "decimalLongitude": -68.98, "eventDate": "2011-03-22T00:00:00.000+0000", "country": "Peru", "stateProvince": "Madre de Dios", "locality": "Peru, Madre de Dios province, River: Gamitana & Agua Negra & Lo Boyo, 23.5 km east of Puerto Maldonado. Rather open forest. Trees 30 m high. Much low canopy inbetween.. Transect: HB409 Subunit: 27"}, {"decimalLatitude": -12.5, "decimalLongitude": -68.84, "eventDate": "2011-03-25T00:00:00.000+0000", "country": "Peru", "stateProvince": "Madre de Dios", "locality": "Peru, Madre de Dios province, Village: Palma Real; River: Madre de Dios; Biflod: Palma Real Grande; 37 km east of Puerto Maldonad. Tropical rain forest beginning on flooded plain changing to flooded terra firme forest. Dominated by Phenakospermum (underst"}, {"decimalLatitude": -12.59, "decimalLongitude": -68.88, "eventDate": "2011-03-28T00:00:00.000+0000", "country": "Peru", "stateProvince": "Madre de Dios", "locality": "Peru, Madre de Dios province, Village: Palma Real; River: Madre de Dios; Biflod: Palma Real Grande; 32.5 km east of Puerto Maldonado. Tropical rain forest on terra firme. Many tall and thick trees. Rather open canopy and some natural disturbance from tree"}, {"decimalLatitude": -12.46, "decimalLongitude": -68.86, "eventDate": "2011-03-29T00:00:00.000+0000", "country": "Peru", "stateProvince": "Madre de Dios", "locality": "Peru, Madre de Dios province, Village: Palma Real; River: Madre de Dios; 37 km east of Puerto Maldonado. Tropical rain forest on terra firme. First half old growth with straight trunks and very open understory. Last half with many natural tree falls and g"}, {"decimalLatitude": -12.59, "decimalLongitude": -68.88, "eventDate": "2011-03-28T00:00:00.000+0000", "country": "Peru", "stateProvince": "Madre de Dios", "locality": "Peru, Madre de Dios province, Village: Palma Real; River: Madre de Dios; Biflod: Palma Real Grande; 32.5 km east of Puerto Maldonado. Tropical rain forest on terra firme. Many tall and thick trees. Rather open canopy and some natural disturbance from tree"}, {"decimalLatitude": -12.46, "decimalLongitude": -68.86, "eventDate": "2011-03-29T00:00:00.000+0000", "country": "Peru", "stateProvince": "Madre de Dios", "locality": "Peru, Madre de Dios province, Village: Palma Real; River: Madre de Dios; 37 km east of Puerto Maldonado. Tropical rain forest on terra firme. First half old growth with straight trunks and very open understory. Last half with many natural tree falls and g"}, {"decimalLatitude": -12.52, "decimalLongitude": -69.04, "eventDate": "2011-03-21T00:00:00.000+0000", "country": "Peru", "stateProvince": "Madre de Dios", "locality": "Peru, Madre de Dios province, Village Inka Terra Lodge, Madre de Dios river, 16.5 km east of Puerto Maldonado, east on bank, Estacion Sientifica, Ita. Flat flood-plain forest with dry parts interrupted by inundated, elongate low sections. 25 m tall trees."}, {"decimalLatitude": -12.51, "decimalLongitude": -68.82, "eventDate": "2011-03-25T00:00:00.000+0000", "country": "Peru", "stateProvince": "Madre de Dios", "locality": "Peru, Madre de Dios province, Village: Palma Real; River: Madre de Dios; Biflod: Palma Real Grande; 39 km east of Puerto Maldonad. Primary tropical rain forest on terra firme with many tree falls and natural disturbance. Area used for extraction of Brasil"}, {"decimalLatitude": -12.52, "decimalLongitude": -69.04, "eventDate": "2011-03-21T00:00:00.000+0000", "country": "Peru", "stateProvince": "Madre de Dios", "locality": "Peru, Madre de Dios province, Village Inka Terra Lodge, Madre de Dios river, 16.5 km east of Puerto Maldonado, east on bank, Estacion Sientifica, Ita. Flat flood-plain forest with dry parts interrupted by inundated, elongate low sections. 25 m tall trees."}, {"decimalLatitude": -12.46, "decimalLongitude": -68.86, "eventDate": "2011-03-29T00:00:00.000+0000", "country": "Peru", "stateProvince": "Madre de Dios", "locality": "Peru, Madre de Dios province, Village: Palma Real; River: Madre de Dios; 37 km east of Puerto Maldonado. Tropical rain forest on terra firme. First half old growth with straight trunks and very open understory. Last half with many natural tree falls and g"}, {"decimalLatitude": -12.59, "decimalLongitude": -68.88, "eventDate": "2011-03-28T00:00:00.000+0000", "country": "Peru", "stateProvince": "Madre de Dios", "locality": "Peru, Madre de Dios province, Village: Palma Real; River: Madre de Dios; Biflod: Palma Real Grande; 32.5 km east of Puerto Maldonado. Tropical rain forest on terra firme. Many tall and thick trees. Rather open canopy and some natural disturbance from tree"}, {"decimalLatitude": -12.52, "decimalLongitude": -69.04, "eventDate": "2011-03-21T00:00:00.000+0000", "country": "Peru", "stateProvince": "Madre de Dios", "locality": "Peru, Madre de Dios province, Village Inka Terra Lodge, Madre de Dios river, 16.5 km east of Puerto Maldonado, east on bank, Estacion Sientifica, Ita. Flat flood-plain forest with dry parts interrupted by inundated, elongate low sections. 25 m tall trees."}, {"decimalLatitude": -12.52, "decimalLongitude": -68.97, "eventDate": "2011-03-15T00:00:00.000+0000", "country": "Peru", "stateProvince": "Madre de Dios", "locality": "Peru, Madre de Dios province, Reservar Ecologica Taricaya, Madre de Dios river,  23 km north east of Puerto Maldonado, south on bank. Tropical flood-plain forest on flat ground with few wet depressions - only parts of transect. Tree density low in some pl"}, {"decimalLatitude": -12.59, "decimalLongitude": -68.88, "eventDate": "2011-03-28T00:00:00.000+0000", "country": "Peru", "stateProvince": "Madre de Dios", "locality": "Peru, Madre de Dios province, Village: Palma Real; River: Madre de Dios; Biflod: Palma Real Grande; 32.5 km east of Puerto Maldonado. Tropical rain forest on terra firme. Many tall and thick trees. Rather open canopy and some natural disturbance from tree"}, {"decimalLatitude": -12.47, "decimalLongitude": -68.86, "eventDate": "2011-03-29T00:00:00.000+0000", "country": "Peru", "stateProvince": "Madre de Dios", "locality": "Peru, Madre de Dios province, Village: Palma Real; River: Madre de Dios; 37 km east of Puerto Maldonado. Tropical rain forest on terra firme. First half old growth with straight trunks and very open understory. Last half with many natural tree falls and g"}, {"decimalLatitude": -12.5, "decimalLongitude": -68.84, "eventDate": "2011-03-25T00:00:00.000+0000", "country": "Peru", "stateProvince": "Madre de Dios", "locality": "Peru, Madre de Dios province, Village: Palma Real; River: Madre de Dios; Biflod: Palma Real Grande; 37 km east of Puerto Maldonad. Tropical rain forest beginning on flooded plain changing to flooded terra firme forest. Dominated by Phenakospermum (underst"}, {"decimalLatitude": -12.53, "decimalLongitude": -69.05, "eventDate": "2011-03-20T00:00:00.000+0000", "country": "Peru", "stateProvince": "Madre de Dios", "locality": "Peru, Madre de Dios province, Village Inka Terra Lodge, Madre de Dios river, 16 km east of Puerto Maldonado, east on bank, Estacion Sientifica, Ita. Dominant species: Astocaryum gratum, Understory: dense, shruby, Description: Flood-plain forest, undisturb"}, {"decimalLatitude": -12.5, "decimalLongitude": -68.84, "eventDate": "2011-03-25T00:00:00.000+0000", "country": "Peru", "stateProvince": "Madre de Dios", "locality": "Peru, Madre de Dios province, Village: Palma Real; River: Madre de Dios; Biflod: Palma Real Grande; 37 km east of Puerto Maldonad. Tropical rain forest beginning on flooded plain changing to flooded terra firme forest. Dominated by Phenakospermum (underst"}, {"decimalLatitude": -12.51, "decimalLongitude": -68.82, "eventDate": "2011-03-25T00:00:00.000+0000", "country": "Peru", "stateProvince": "Madre de Dios", "locality": "Peru, Madre de Dios province, Village: Palma Real; River: Madre de Dios; Biflod: Palma Real Grande; 39 km east of Puerto Maldonad. Primary tropical rain forest on terra firme with many tree falls and natural disturbance. Area used for extraction of Brasil"}, {"decimalLatitude": -12.49, "decimalLongitude": -68.98, "eventDate": "2011-03-22T00:00:00.000+0000", "country": "Peru", "stateProvince": "Madre de Dios", "locality": "Peru, Madre de Dios province, River: Gamitana & Agua Negra & Lo Boyo, 23.5 km east of Puerto Maldonado. Rather open forest. Trees 30 m high. Much low canopy inbetween.. Transect: HB409 Subunit: 35"}, {"decimalLatitude": -12.59, "decimalLongitude": -68.88, "eventDate": "2011-03-28T00:00:00.000+0000", "country": "Peru", "stateProvince": "Madre de Dios", "locality": "Peru, Madre de Dios province, Village: Palma Real; River: Madre de Dios; Biflod: Palma Real Grande; 32.5 km east of Puerto Maldonado. Tropical rain forest on terra firme. Many tall and thick trees. Rather open canopy and some natural disturbance from tree"}, {"decimalLatitude": -12.46, "decimalLongitude": -68.86, "eventDate": "2011-03-29T00:00:00.000+0000", "country": "Peru", "stateProvince": "Madre de Dios", "locality": "Peru, Madre de Dios province, Village: Palma Real; River: Madre de Dios; 37 km east of Puerto Maldonado. Tropical rain forest on terra firme. First half old growth with straight trunks and very open understory. Last half with many natural tree falls and g"}, {"decimalLatitude": -12.49, "decimalLongitude": -68.98, "eventDate": "2011-03-22T00:00:00.000+0000", "country": "Peru", "stateProvince": "Madre de Dios", "locality": "Peru, Madre de Dios province, River: Gamitana & Agua Negra & Lo Boyo, 23.5 km east of Puerto Maldonado. Rather open forest. Trees 30 m high. Much low canopy inbetween.. Transect: HB409 Subunit: 38"}, {"decimalLatitude": -12.51, "decimalLongitude": -68.82, "eventDate": "2011-03-25T00:00:00.000+0000", "country": "Peru", "stateProvince": "Madre de Dios", "locality": "Peru, Madre de Dios province, Village: Palma Real; River: Madre de Dios; Biflod: Palma Real Grande; 39 km east of Puerto Maldonad. Primary tropical rain forest on terra firme with many tree falls and natural disturbance. Area used for extraction of Brasil"}, {"decimalLatitude": -12.5, "decimalLongitude": -68.81, "eventDate": "2011-03-26T00:00:00.000+0000", "country": "Peru", "stateProvince": "Madre de Dios", "locality": "Peru, Madre de Dios province, Village: Palma Real; River: Madre de Dios; 41 km east of Puerto Maldonado. Tropical flood-plain forest with large trees. Rather open canopy. Understory: mostly dominated by Heliconia and Marantaceae. Transect: HB415 Subunit:"}, {"decimalLatitude": -12.49, "decimalLongitude": -68.98, "eventDate": "2011-03-22T00:00:00.000+0000", "country": "Peru", "stateProvince": "Madre de Dios", "locality": "Peru, Madre de Dios province, River: Gamitana & Agua Negra & Lo Boyo, 23.5 km east of Puerto Maldonado. Rather open forest. Trees 30 m high. Much low canopy inbetween.. Transect: HB409 Subunit: 20"}, {"decimalLatitude": -12.51, "decimalLongitude": -68.82, "eventDate": "2011-03-25T00:00:00.000+0000", "country": "Peru", "stateProvince": "Madre de Dios", "locality": "Peru, Madre de Dios province, Village: Palma Real; River: Madre de Dios; Biflod: Palma Real Grande; 39 km east of Puerto Maldonad. Primary tropical rain forest on terra firme with many tree falls and natural disturbance. Area used for extraction of Brasil"}, {"decimalLatitude": -12.52, "decimalLongitude": -68.97, "eventDate": "2011-03-15T00:00:00.000+0000", "country": "Peru", "stateProvince": "Madre de Dios", "locality": "Peru, Madre de Dios province, Reservar Ecologica Taricaya, Madre de Dios river,  23 km north east of Puerto Maldonado, south on bank. Tropical flood-plain forest on flat ground with few wet depressions - only parts of transect. Tree density low in some pl"}, {"decimalLatitude": -12.46, "decimalLongitude": -68.86, "eventDate": "2011-03-29T00:00:00.000+0000", "country": "Peru", "stateProvince": "Madre de Dios", "locality": "Peru, Madre de Dios province, Village: Palma Real; River: Madre de Dios; 37 km east of Puerto Maldonado. Tropical rain forest on terra firme. First half old growth with straight trunks and very open understory. Last half with many natural tree falls and g"}, {"decimalLatitude": -12.5, "decimalLongitude": -68.84, "eventDate": "2011-03-25T00:00:00.000+0000", "country": "Peru", "stateProvince": "Madre de Dios", "locality": "Peru, Madre de Dios province, Village: Palma Real; River: Madre de Dios; Biflod: Palma Real Grande; 37 km east of Puerto Maldonad. Tropical rain forest beginning on flooded plain changing to flooded terra firme forest. Dominated by Phenakospermum (underst"}, {"decimalLatitude": -12.53, "decimalLongitude": -68.85, "eventDate": "2011-03-26T00:00:00.000+0000", "country": "Peru", "stateProvince": "Madre de Dios", "locality": "Peru, Madre de Dios province, Village: Palma Real; River: Madre de Dios; Biflod: Palma Real Grande; 35.5 km east of Puerto Maldonado. Tropical rain forest on terra firme. Many tall trees - up to 30 m; Dense understory; some natural disturbance from fallen"}, {"decimalLatitude": -12.52, "decimalLongitude": -68.97, "eventDate": "2011-03-15T00:00:00.000+0000", "country": "Peru", "stateProvince": "Madre de Dios", "locality": "Peru, Madre de Dios province, Reservar Ecologica Taricaya, Madre de Dios river,  23 km north east of Puerto Maldonado, south on bank. Tropical flood-plain forest on flat ground with few wet depressions - only parts of transect. Tree density low in some pl"}, {"decimalLatitude": -12.5, "decimalLongitude": -68.76, "eventDate": "2011-03-27T00:00:00.000+0000", "country": "Peru", "stateProvince": "Madre de Dios", "locality": "Peru, Madre de Dios province, Village: Palma Real; River: Madre de Dios; 46.5 km east of Puerto Maldonado. Tropical rain forest with some wet depressions. Naturally disturbed by fallen trees. Understory: dominated by Heliconia. Transect: HB417 Subunit: 56"}, {"decimalLatitude": -12.5, "decimalLongitude": -68.85, "eventDate": "2011-03-25T00:00:00.000+0000", "country": "Peru", "stateProvince": "Madre de Dios", "locality": "Peru, Madre de Dios province, Village: Palma Real; River: Madre de Dios; Biflod: Palma Real Grande; 37 km east of Puerto Maldonad. Tropical rain forest beginning on flooded plain changing to flooded terra firme forest. Dominated by Phenakospermum (underst"}, {"decimalLatitude": -12.53, "decimalLongitude": -68.85, "eventDate": "2011-03-26T00:00:00.000+0000", "country": "Peru", "stateProvince": "Madre de Dios", "locality": "Peru, Madre de Dios province, Village: Palma Real; River: Madre de Dios; Biflod: Palma Real Grande; 35.5 km east of Puerto Maldonado. Tropical rain forest on terra firme. Many tall trees - up to 30 m; Dense understory; some natural disturbance from fallen"}, {"decimalLatitude": -12.52, "decimalLongitude": -68.97, "eventDate": "2011-03-15T00:00:00.000+0000", "country": "Peru", "stateProvince": "Madre de Dios", "locality": "Peru, Madre de Dios province, Reservar Ecologica Taricaya, Madre de Dios river,  23 km north east of Puerto Maldonado, south on bank. Tropical flood-plain forest on flat ground with few wet depressions - only parts of transect. Tree density low in some pl"}, {"decimalLatitude": -12.54, "decimalLongitude": -68.85, "eventDate": "2011-03-26T00:00:00.000+0000", "country": "Peru", "stateProvince": "Madre de Dios", "locality": "Peru, Madre de Dios province, Village: Palma Real; River: Madre de Dios; Biflod: Palma Real Grande; 35.5 km east of Puerto Maldonado. Tropical rain forest on terra firme. Many tall trees - up to 30 m; Dense understory; some natural disturbance from fallen"}, {"decimalLatitude": -12.53, "decimalLongitude": -68.85, "eventDate": "2011-03-26T00:00:00.000+0000", "country": "Peru", "stateProvince": "Madre de Dios", "locality": "Peru, Madre de Dios province, Village: Palma Real; River: Madre de Dios; Biflod: Palma Real Grande; 35.5 km east of Puerto Maldonado. Tropical rain forest on terra firme. Many tall trees - up to 30 m; Dense understory; some natural disturbance from fallen"}, {"decimalLatitude": -12.51, "decimalLongitude": -68.82, "eventDate": "2011-03-25T00:00:00.000+0000", "country": "Peru", "stateProvince": "Madre de Dios", "locality": "Peru, Madre de Dios province, Village: Palma Real; River: Madre de Dios; Biflod: Palma Real Grande; 39 km east of Puerto Maldonad. Primary tropical rain forest on terra firme with many tree falls and natural disturbance. Area used for extraction of Brasil"}, {"decimalLatitude": -12.52, "decimalLongitude": -69.04, "eventDate": "2011-03-21T00:00:00.000+0000", "country": "Peru", "stateProvince": "Madre de Dios", "locality": "Peru, Madre de Dios province, Village Inka Terra Lodge, Madre de Dios river, 16.5 km east of Puerto Maldonado, east on bank, Estacion Sientifica, Ita. Flat flood-plain forest with dry parts interrupted by inundated, elongate low sections. 25 m tall trees."}, {"decimalLatitude": -12.53, "decimalLongitude": -69.05, "eventDate": "2011-03-23T00:00:00.000+0000", "country": "Peru", "stateProvince": "Madre de Dios", "locality": "Peru, Madre de Dios province, Village: ITA behind the Inka Terra lodge, River: Madre de Dios; 15 km east of Puerto Maldonado. Tropical rain forest on floodplain without wet depressions. Relatively dense. Trees up to 30 m. Understory: open shrubby - many p"}, {"decimalLatitude": -12.51, "decimalLongitude": -68.82, "eventDate": "2011-03-25T00:00:00.000+0000", "country": "Peru", "stateProvince": "Madre de Dios", "locality": "Peru, Madre de Dios province, Village: Palma Real; River: Madre de Dios; Biflod: Palma Real Grande; 39 km east of Puerto Maldonad. Primary tropical rain forest on terra firme with many tree falls and natural disturbance. Area used for extraction of Brasil"}, {"decimalLatitude": -12.5, "decimalLongitude": -68.84, "eventDate": "2011-03-25T00:00:00.000+0000", "country": "Peru", "stateProvince": "Madre de Dios", "locality": "Peru, Madre de Dios province, Village: Palma Real; River: Madre de Dios; Biflod: Palma Real Grande; 37 km east of Puerto Maldonad. Tropical rain forest beginning on flooded plain changing to flooded terra firme forest. Dominated by Phenakospermum (underst"}, {"decimalLatitude": -12.46, "decimalLongitude": -68.86, "eventDate": "2011-03-29T00:00:00.000+0000", "country": "Peru", "stateProvince": "Madre de Dios", "locality": "Peru, Madre de Dios province, Village: Palma Real; River: Madre de Dios; 37 km east of Puerto Maldonado. Tropical rain forest on terra firme. First half old growth with straight trunks and very open understory. Last half with many natural tree falls and g"}, {"decimalLatitude": -12.52, "decimalLongitude": -69.04, "eventDate": "2011-03-21T00:00:00.000+0000", "country": "Peru", "stateProvince": "Madre de Dios", "locality": "Peru, Madre de Dios province, Village Inka Terra Lodge, Madre de Dios river, 16.5 km east of Puerto Maldonado, east on bank, Estacion Sientifica, Ita. Flat flood-plain forest with dry parts interrupted by inundated, elongate low sections. 25 m tall trees."}, {"decimalLatitude": -12.53, "decimalLongitude": -69.04, "eventDate": "2011-03-20T00:00:00.000+0000", "country": "Peru", "stateProvince": "Madre de Dios", "locality": "Peru, Madre de Dios province, Village Inka Terra Lodge, Madre de Dios river, 16 km east of Puerto Maldonado, east on bank, Estacion Sientifica, Ita. Dominant species: Astocaryum gratum, Understory: dense, shruby, Description: Flood-plain forest, undisturb"}, {"decimalLatitude": -12.52, "decimalLongitude": -69.04, "eventDate": "2011-03-21T00:00:00.000+0000", "country": "Peru", "stateProvince": "Madre de Dios", "locality": "Peru, Madre de Dios province, Village Inka Terra Lodge, Madre de Dios river, 16.5 km east of Puerto Maldonado, east on bank, Estacion Sientifica, Ita. Flat flood-plain forest with dry parts interrupted by inundated, elongate low sections. 25 m tall trees."}, {"decimalLatitude": -12.5, "decimalLongitude": -68.81, "eventDate": "2011-03-26T00:00:00.000+0000", "country": "Peru", "stateProvince": "Madre de Dios", "locality": "Peru, Madre de Dios province, Village: Palma Real; River: Madre de Dios; 41 km east of Puerto Maldonado. Tropical flood-plain forest with large trees. Rather open canopy. Understory: mostly dominated by Heliconia and Marantaceae. Transect: HB415 Subunit:"}, {"decimalLatitude": -12.54, "decimalLongitude": -68.85, "eventDate": "2011-03-26T00:00:00.000+0000", "country": "Peru", "stateProvince": "Madre de Dios", "locality": "Peru, Madre de Dios province, Village: Palma Real; River: Madre de Dios; Biflod: Palma Real Grande; 35.5 km east of Puerto Maldonado. Tropical rain forest on terra firme. Many tall trees - up to 30 m; Dense understory; some natural disturbance from fallen"}, {"decimalLatitude": -12.49, "decimalLongitude": -68.81, "eventDate": "2011-03-26T00:00:00.000+0000", "country": "Peru", "stateProvince": "Madre de Dios", "locality": "Peru, Madre de Dios province, Village: Palma Real; River: Madre de Dios; 41 km east of Puerto Maldonado. Tropical flood-plain forest with large trees. Rather open canopy. Understory: mostly dominated by Heliconia and Marantaceae. Transect: HB415 Subunit:"}, {"decimalLatitude": -12.51, "decimalLongitude": -68.82, "eventDate": "2011-03-25T00:00:00.000+0000", "country": "Peru", "stateProvince": "Madre de Dios", "locality": "Peru, Madre de Dios province, Village: Palma Real; River: Madre de Dios; Biflod: Palma Real Grande; 39 km east of Puerto Maldonad. Primary tropical rain forest on terra firme with many tree falls and natural disturbance. Area used for extraction of Brasil"}, {"decimalLatitude": -12.49, "decimalLongitude": -68.97, "eventDate": "2011-03-22T00:00:00.000+0000", "country": "Peru", "stateProvince": "Madre de Dios", "locality": "Peru, Madre de Dios province, River: Gamitana & Agua Negra & Lo Boyo, 25 km east of Puerto Maldonado. Tropical rain forest on high floodplain; apparently rarely inundated in the first half of transect and lower more wet in the last half. Forest heavily di"}, {"decimalLatitude": -12.5, "decimalLongitude": -68.84, "eventDate": "2011-03-25T00:00:00.000+0000", "country": "Peru", "stateProvince": "Madre de Dios", "locality": "Peru, Madre de Dios province, Village: Palma Real; River: Madre de Dios; Biflod: Palma Real Grande; 37 km east of Puerto Maldonad. Tropical rain forest beginning on flooded plain changing to flooded terra firme forest. Dominated by Phenakospermum (underst"}, {"decimalLatitude": -12.56, "decimalLongitude": -68.87, "eventDate": "2011-03-28T00:00:00.000+0000", "country": "Peru", "stateProvince": "Madre de Dios", "locality": "Peru, Madre de Dios province, Village: Palma Real; River: Madre de Dios, Biflod: Pama Real Grande; 33.5 km east of Puerto Maldonado. Tropical rain forest on terra firme. Canopy up to 35 m high. Understory: dense, occasionally dominated by Aspidospermum. T"}, {"decimalLatitude": -12.47, "decimalLongitude": -68.86, "eventDate": "2011-03-29T00:00:00.000+0000", "country": "Peru", "stateProvince": "Madre de Dios", "locality": "Peru, Madre de Dios province, Village: Palma Real; River: Madre de Dios; 37 km east of Puerto Maldonado. Tropical rain forest on terra firme. First half old growth with straight trunks and very open understory. Last half with many natural tree falls and g"}, {"decimalLatitude": -12.52, "decimalLongitude": -69.04, "eventDate": "2011-03-21T00:00:00.000+0000", "country": "Peru", "stateProvince": "Madre de Dios", "locality": "Peru, Madre de Dios province, Village Inka Terra Lodge, Madre de Dios river, 16.5 km east of Puerto Maldonado, east on bank, Estacion Sientifica, Ita. Flat flood-plain forest with dry parts interrupted by inundated, elongate low sections. 25 m tall trees."}, {"decimalLatitude": -12.51, "decimalLongitude": -68.82, "eventDate": "2011-03-25T00:00:00.000+0000", "country": "Peru", "stateProvince": "Madre de Dios", "locality": "Peru, Madre de Dios province, Village: Palma Real; River: Madre de Dios; Biflod: Palma Real Grande; 39 km east of Puerto Maldonad. Primary tropical rain forest on terra firme with many tree falls and natural disturbance. Area used for extraction of Brasil"}, {"decimalLatitude": -12.52, "decimalLongitude": -69.04, "eventDate": "2011-03-21T00:00:00.000+0000", "country": "Peru", "stateProvince": "Madre de Dios", "locality": "Peru, Madre de Dios province, Village Inka Terra Lodge, Madre de Dios river, 16.5 km east of Puerto Maldonado, east on bank, Estacion Sientifica, Ita. Flat flood-plain forest with dry parts interrupted by inundated, elongate low sections. 25 m tall trees."}, {"decimalLatitude": -12.46, "decimalLongitude": -68.86, "eventDate": "2011-03-29T00:00:00.000+0000", "country": "Peru", "stateProvince": "Madre de Dios", "locality": "Peru, Madre de Dios province, Village: Palma Real; River: Madre de Dios; 37 km east of Puerto Maldonado. Tropical rain forest on terra firme. First half old growth with straight trunks and very open understory. Last half with many natural tree falls and g"}, {"decimalLatitude": -12.49, "decimalLongitude": -68.98, "eventDate": "2011-03-22T00:00:00.000+0000", "country": "Peru", "stateProvince": "Madre de Dios", "locality": "Peru, Madre de Dios province, River: Gamitana & Agua Negra & Lo Boyo, 23.5 km east of Puerto Maldonado. Rather open forest. Trees 30 m high. Much low canopy inbetween.. Transect: HB409 Subunit: 31"}, {"decimalLatitude": -12.54, "decimalLongitude": -68.85, "eventDate": "2011-03-26T00:00:00.000+0000", "country": "Peru", "stateProvince": "Madre de Dios", "locality": "Peru, Madre de Dios province, Village: Palma Real; River: Madre de Dios; Biflod: Palma Real Grande; 35.5 km east of Puerto Maldonado. Tropical rain forest on terra firme. Many tall trees - up to 30 m; Dense understory; some natural disturbance from fallen"}, {"decimalLatitude": -12.5, "decimalLongitude": -68.81, "eventDate": "2011-03-26T00:00:00.000+0000", "country": "Peru", "stateProvince": "Madre de Dios", "locality": "Peru, Madre de Dios province, Village: Palma Real; River: Madre de Dios; 41 km east of Puerto Maldonado. Tropical flood-plain forest with large trees. Rather open canopy. Understory: mostly dominated by Heliconia and Marantaceae. Transect: HB415 Subunit:"}, {"decimalLatitude": -12.51, "decimalLongitude": -68.82, "eventDate": "2011-03-25T00:00:00.000+0000", "country": "Peru", "stateProvince": "Madre de Dios", "locality": "Peru, Madre de Dios province, Village: Palma Real; River: Madre de Dios; Biflod: Palma Real Grande; 39 km east of Puerto Maldonad. Primary tropical rain forest on terra firme with many tree falls and natural disturbance. Area used for extraction of Brasil"}, {"decimalLatitude": -12.52, "decimalLongitude": -68.97, "eventDate": "2011-03-15T00:00:00.000+0000", "country": "Peru", "stateProvince": "Madre de Dios", "locality": "Peru, Madre de Dios province, Reservar Ecologica Taricaya, Madre de Dios river,  23 km north east of Puerto Maldonado, south on bank. Tropical flood-plain forest on flat ground with few wet depressions - only parts of transect. Tree density low in some pl"}, {"decimalLatitude": -12.49, "decimalLongitude": -68.97, "eventDate": "2011-03-22T00:00:00.000+0000", "country": "Peru", "stateProvince": "Madre de Dios", "locality": "Peru, Madre de Dios province, River: Gamitana & Agua Negra & Lo Boyo, 25 km east of Puerto Maldonado. Tropical rain forest on high floodplain; apparently rarely inundated in the first half of transect and lower more wet in the last half. Forest heavily di"}, {"decimalLatitude": -12.53, "decimalLongitude": -69.04, "eventDate": "2011-03-20T00:00:00.000+0000", "country": "Peru", "stateProvince": "Madre de Dios", "locality": "Peru, Madre de Dios province, Village Inka Terra Lodge, Madre de Dios river, 16 km east of Puerto Maldonado, east on bank, Estacion Sientifica, Ita. Dominant species: Astocaryum gratum, Understory: dense, shruby, Description: Flood-plain forest, undisturb"}, {"decimalLatitude": -12.52, "decimalLongitude": -69.04, "eventDate": "2011-03-21T00:00:00.000+0000", "country": "Peru", "stateProvince": "Madre de Dios", "locality": "Peru, Madre de Dios province, Village Inka Terra Lodge, Madre de Dios river, 16.5 km east of Puerto Maldonado, east on bank, Estacion Sientifica, Ita. Flat flood-plain forest with dry parts interrupted by inundated, elongate low sections. 25 m tall trees."}, {"decimalLatitude": -12.49, "decimalLongitude": -68.98, "eventDate": "2011-03-22T00:00:00.000+0000", "country": "Peru", "stateProvince": "Madre de Dios", "locality": "Peru, Madre de Dios province, River: Gamitana & Agua Negra & Lo Boyo, 23.5 km east of Puerto Maldonado. Rather open forest. Trees 30 m high. Much low canopy inbetween.. Transect: HB409 Subunit: 29"}, {"decimalLatitude": -12.49, "decimalLongitude": -68.98, "eventDate": "2011-03-22T00:00:00.000+0000", "country": "Peru", "stateProvince": "Madre de Dios", "locality": "Peru, Madre de Dios province, River: Gamitana & Agua Negra & Lo Boyo, 23.5 km east of Puerto Maldonado. Rather open forest. Trees 30 m high. Much low canopy inbetween.. Transect: HB409 Subunit: 22"}, {"decimalLatitude": -12.46, "decimalLongitude": -68.86, "eventDate": "2011-03-29T00:00:00.000+0000", "country": "Peru", "stateProvince": "Madre de Dios", "locality": "Peru, Madre de Dios province, Village: Palma Real; River: Madre de Dios; 37 km east of Puerto Maldonado. Tropical rain forest on terra firme. First half old growth with straight trunks and very open understory. Last half with many natural tree falls and g"}, {"decimalLatitude": -12.54, "decimalLongitude": -68.85, "eventDate": "2011-03-26T00:00:00.000+0000", "country": "Peru", "stateProvince": "Madre de Dios", "locality": "Peru, Madre de Dios province, Village: Palma Real; River: Madre de Dios; Biflod: Palma Real Grande; 35.5 km east of Puerto Maldonado. Tropical rain forest on terra firme. Many tall trees - up to 30 m; Dense understory; some natural disturbance from fallen"}, {"decimalLatitude": -12.46, "decimalLongitude": -68.86, "eventDate": "2011-03-29T00:00:00.000+0000", "country": "Peru", "stateProvince": "Madre de Dios", "locality": "Peru, Madre de Dios province, Village: Palma Real; River: Madre de Dios; 37 km east of Puerto Maldonado. Tropical rain forest on terra firme. First half old growth with straight trunks and very open understory. Last half with many natural tree falls and g"}, {"decimalLatitude": -12.52, "decimalLongitude": -69.04, "eventDate": "2011-03-21T00:00:00.000+0000", "country": "Peru", "stateProvince": "Madre de Dios", "locality": "Peru, Madre de Dios province, Village Inka Terra Lodge, Madre de Dios river, 16.5 km east of Puerto Maldonado, east on bank, Estacion Sientifica, Ita. Flat flood-plain forest with dry parts interrupted by inundated, elongate low sections. 25 m tall trees."}, {"decimalLatitude": -12.49, "decimalLongitude": -68.98, "eventDate": "2011-03-22T00:00:00.000+0000", "country": "Peru", "stateProvince": "Madre de Dios", "locality": "Peru, Madre de Dios province, River: Gamitana & Agua Negra & Lo Boyo, 23.5 km east of Puerto Maldonado. Rather open forest. Trees 30 m high. Much low canopy inbetween.. Transect: HB409 Subunit: 13"}, {"decimalLatitude": -12.52, "decimalLongitude": -68.97, "eventDate": "2011-03-15T00:00:00.000+0000", "country": "Peru", "stateProvince": "Madre de Dios", "locality": "Peru, Madre de Dios province, Reservar Ecologica Taricaya, Madre de Dios river,  23 km north east of Puerto Maldonado, south on bank. Tropical flood-plain forest on flat ground with few wet depressions - only parts of transect. Tree density low in some pl"}, {"decimalLatitude": -12.5, "decimalLongitude": -68.84, "eventDate": "2011-03-25T00:00:00.000+0000", "country": "Peru", "stateProvince": "Madre de Dios", "locality": "Peru, Madre de Dios province, Village: Palma Real; River: Madre de Dios; Biflod: Palma Real Grande; 37 km east of Puerto Maldonad. Tropical rain forest beginning on flooded plain changing to flooded terra firme forest. Dominated by Phenakospermum (underst"}, {"decimalLatitude": -12.52, "decimalLongitude": -68.97, "eventDate": "2011-03-15T00:00:00.000+0000", "country": "Peru", "stateProvince": "Madre de Dios", "locality": "Peru, Madre de Dios province, Reservar Ecologica Taricaya, Madre de Dios river,  23 km north east of Puerto Maldonado, south on bank. Tropical flood-plain forest on flat ground with few wet depressions - only parts of transect. Tree density low in some pl"}, {"decimalLatitude": -12.53, "decimalLongitude": -69.05, "eventDate": "2011-03-23T00:00:00.000+0000", "country": "Peru", "stateProvince": "Madre de Dios", "locality": "Peru, Madre de Dios province, Village: ITA behind the Inka Terra lodge, River: Madre de Dios; 15 km east of Puerto Maldonado. Tropical rain forest on floodplain without wet depressions. Relatively dense. Trees up to 30 m. Understory: open shrubby - many p"}, {"decimalLatitude": -12.47, "decimalLongitude": -68.86, "eventDate": "2011-03-29T00:00:00.000+0000", "country": "Peru", "stateProvince": "Madre de Dios", "locality": "Peru, Madre de Dios province, Village: Palma Real; River: Madre de Dios; 37 km east of Puerto Maldonado. Tropical rain forest on terra firme. First half old growth with straight trunks and very open understory. Last half with many natural tree falls and g"}, {"decimalLatitude": -12.46, "decimalLongitude": -68.86, "eventDate": "2011-03-29T00:00:00.000+0000", "country": "Peru", "stateProvince": "Madre de Dios", "locality": "Peru, Madre de Dios province, Village: Palma Real; River: Madre de Dios; 37 km east of Puerto Maldonado. Tropical rain forest on terra firme. First half old growth with straight trunks and very open understory. Last half with many natural tree falls and g"}, {"decimalLatitude": -12.52, "decimalLongitude": -68.97, "eventDate": "2011-03-15T00:00:00.000+0000", "country": "Peru", "stateProvince": "Madre de Dios", "locality": "Peru, Madre de Dios province, Reservar Ecologica Taricaya, Madre de Dios river,  23 km north east of Puerto Maldonado, south on bank. Tropical flood-plain forest on flat ground with few wet depressions - only parts of transect. Tree density low in some pl"}, {"decimalLatitude": -12.52, "decimalLongitude": -69.04, "eventDate": "2011-03-21T00:00:00.000+0000", "country": "Peru", "stateProvince": "Madre de Dios", "locality": "Peru, Madre de Dios province, Village Inka Terra Lodge, Madre de Dios river, 16.5 km east of Puerto Maldonado, east on bank, Estacion Sientifica, Ita. Flat flood-plain forest with dry parts interrupted by inundated, elongate low sections. 25 m tall trees."}, {"decimalLatitude": -12.46, "decimalLongitude": -68.86, "eventDate": "2011-03-29T00:00:00.000+0000", "country": "Peru", "stateProvince": "Madre de Dios", "locality": "Peru, Madre de Dios province, Village: Palma Real; River: Madre de Dios; 37 km east of Puerto Maldonado. Tropical rain forest on terra firme. First half old growth with straight trunks and very open understory. Last half with many natural tree falls and g"}, {"decimalLatitude": -12.46, "decimalLongitude": -68.86, "eventDate": "2011-03-29T00:00:00.000+0000", "country": "Peru", "stateProvince": "Madre de Dios", "locality": "Peru, Madre de Dios province, Village: Palma Real; River: Madre de Dios; 37 km east of Puerto Maldonado. Tropical rain forest on terra firme. First half old growth with straight trunks and very open understory. Last half with many natural tree falls and g"}, {"decimalLatitude": -12.49, "decimalLongitude": -68.97, "eventDate": "2011-03-22T00:00:00.000+0000", "country": "Peru", "stateProvince": "Madre de Dios", "locality": "Peru, Madre de Dios province, River: Gamitana & Agua Negra & Lo Boyo, 25 km east of Puerto Maldonado. Tropical rain forest on high floodplain; apparently rarely inundated in the first half of transect and lower more wet in the last half. Forest heavily di"}, {"decimalLatitude": -12.49, "decimalLongitude": -68.98, "eventDate": "2011-03-22T00:00:00.000+0000", "country": "Peru", "stateProvince": "Madre de Dios", "locality": "Peru, Madre de Dios province, River: Gamitana & Agua Negra & Lo Boyo, 23.5 km east of Puerto Maldonado. Rather open forest. Trees 30 m high. Much low canopy inbetween.. Transect: HB409 Subunit: 14"}, {"decimalLatitude": -12.51, "decimalLongitude": -68.82, "eventDate": "2011-03-25T00:00:00.000+0000", "country": "Peru", "stateProvince": "Madre de Dios", "locality": "Peru, Madre de Dios province, Village: Palma Real; River: Madre de Dios; Biflod: Palma Real Grande; 39 km east of Puerto Maldonad. Primary tropical rain forest on terra firme with many tree falls and natural disturbance. Area used for extraction of Brasil"}, {"decimalLatitude": -12.52, "decimalLongitude": -68.96, "eventDate": "2011-03-05T00:00:00.000+0000", "country": "Peru", "stateProvince": "Madre de Dios", "locality": "Peru, Madre de Dios province, Reservar Ecologica Taricaya, Madre de Dios river,  23 km north east of Puerto Maldonado, south on bank. Tropical flood-plain forest on flat ground with few wet depressions. Tree density low in some places. Regenerating forest"}, {"decimalLatitude": -12.46, "decimalLongitude": -68.86, "eventDate": "2011-03-29T00:00:00.000+0000", "country": "Peru", "stateProvince": "Madre de Dios", "locality": "Peru, Madre de Dios province, Village: Palma Real; River: Madre de Dios; 37 km east of Puerto Maldonado. Tropical rain forest on terra firme. First half old growth with straight trunks and very open understory. Last half with many natural tree falls and g"}, {"decimalLatitude": -12.5, "decimalLongitude": -68.84, "eventDate": "2011-03-25T00:00:00.000+0000", "country": "Peru", "stateProvince": "Madre de Dios", "locality": "Peru, Madre de Dios province, Village: Palma Real; River: Madre de Dios; Biflod: Palma Real Grande; 37 km east of Puerto Maldonad. Tropical rain forest beginning on flooded plain changing to flooded terra firme forest. Dominated by Phenakospermum (underst"}, {"decimalLatitude": -12.46, "decimalLongitude": -68.86, "eventDate": "2011-03-29T00:00:00.000+0000", "country": "Peru", "stateProvince": "Madre de Dios", "locality": "Peru, Madre de Dios province, Village: Palma Real; River: Madre de Dios; 37 km east of Puerto Maldonado. Tropical rain forest on terra firme. First half old growth with straight trunks and very open understory. Last half with many natural tree falls and g"}, {"decimalLatitude": -12.52, "decimalLongitude": -69.04, "eventDate": "2011-03-21T00:00:00.000+0000", "country": "Peru", "stateProvince": "Madre de Dios", "locality": "Peru, Madre de Dios province, Village Inka Terra Lodge, Madre de Dios river, 16.5 km east of Puerto Maldonado, east on bank, Estacion Sientifica, Ita. Flat flood-plain forest with dry parts interrupted by inundated, elongate low sections. 25 m tall trees."}, {"decimalLatitude": -12.52, "decimalLongitude": -69.04, "eventDate": "2011-03-21T00:00:00.000+0000", "country": "Peru", "stateProvince": "Madre de Dios", "locality": "Peru, Madre de Dios province, Village Inka Terra Lodge, Madre de Dios river, 16.5 km east of Puerto Maldonado, east on bank, Estacion Sientifica, Ita. Flat flood-plain forest with dry parts interrupted by inundated, elongate low sections. 25 m tall trees."}, {"decimalLatitude": -12.54, "decimalLongitude": -68.85, "eventDate": "2011-03-26T00:00:00.000+0000", "country": "Peru", "stateProvince": "Madre de Dios", "locality": "Peru, Madre de Dios province, Village: Palma Real; River: Madre de Dios; Biflod: Palma Real Grande; 35.5 km east of Puerto Maldonado. Tropical rain forest on terra firme. Many tall trees - up to 30 m; Dense understory; some natural disturbance from fallen"}, {"decimalLatitude": -12.46, "decimalLongitude": -68.86, "eventDate": "2011-03-29T00:00:00.000+0000", "country": "Peru", "stateProvince": "Madre de Dios", "locality": "Peru, Madre de Dios province, Village: Palma Real; River: Madre de Dios; 37 km east of Puerto Maldonado. Tropical rain forest on terra firme. First half old growth with straight trunks and very open understory. Last half with many natural tree falls and g"}, {"decimalLatitude": -12.54, "decimalLongitude": -68.85, "eventDate": "2011-03-26T00:00:00.000+0000", "country": "Peru", "stateProvince": "Madre de Dios", "locality": "Peru, Madre de Dios province, Village: Palma Real; River: Madre de Dios; Biflod: Palma Real Grande; 35.5 km east of Puerto Maldonado. Tropical rain forest on terra firme. Many tall trees - up to 30 m; Dense understory; some natural disturbance from fallen"}, {"decimalLatitude": -12.49, "decimalLongitude": -68.81, "eventDate": "2011-03-26T00:00:00.000+0000", "country": "Peru", "stateProvince": "Madre de Dios", "locality": "Peru, Madre de Dios province, Village: Palma Real; River: Madre de Dios; 41 km east of Puerto Maldonado. Tropical flood-plain forest with large trees. Rather open canopy. Understory: mostly dominated by Heliconia and Marantaceae. Transect: HB415 Subunit:"}, {"decimalLatitude": -12.59, "decimalLongitude": -68.88, "eventDate": "2011-03-28T00:00:00.000+0000", "country": "Peru", "stateProvince": "Madre de Dios", "locality": "Peru, Madre de Dios province, Village: Palma Real; River: Madre de Dios; Biflod: Palma Real Grande; 32.5 km east of Puerto Maldonado. Tropical rain forest on terra firme. Many tall and thick trees. Rather open canopy and some natural disturbance from tree"}, {"decimalLatitude": -12.49, "decimalLongitude": -68.97, "eventDate": "2011-03-22T00:00:00.000+0000", "country": "Peru", "stateProvince": "Madre de Dios", "locality": "Peru, Madre de Dios province, River: Gamitana & Agua Negra & Lo Boyo, 25 km east of Puerto Maldonado. Tropical rain forest on high floodplain; apparently rarely inundated in the first half of transect and lower more wet in the last half. Forest heavily di"}, {"decimalLatitude": -12.49, "decimalLongitude": -68.99, "eventDate": "2011-03-22T00:00:00.000+0000", "country": "Peru", "stateProvince": "Madre de Dios", "locality": "Peru, Madre de Dios province, River: Gamitana & Agua Negra & Lo Boyo, 23.5 km east of Puerto Maldonado. Rather open forest. Trees 30 m high. Much low canopy inbetween.. Transect: HB409 Subunit: 60"}, {"decimalLatitude": -12.51, "decimalLongitude": -68.82, "eventDate": "2011-03-25T00:00:00.000+0000", "country": "Peru", "stateProvince": "Madre de Dios", "locality": "Peru, Madre de Dios province, Village: Palma Real; River: Madre de Dios; Biflod: Palma Real Grande; 39 km east of Puerto Maldonad. Primary tropical rain forest on terra firme with many tree falls and natural disturbance. Area used for extraction of Brasil"}, {"decimalLatitude": -12.46, "decimalLongitude": -68.86, "eventDate": "2011-03-29T00:00:00.000+0000", "country": "Peru", "stateProvince": "Madre de Dios", "locality": "Peru, Madre de Dios province, Village: Palma Real; River: Madre de Dios; 37 km east of Puerto Maldonado. Tropical rain forest on terra firme. First half old growth with straight trunks and very open understory. Last half with many natural tree falls and g"}, {"decimalLatitude": -12.5, "decimalLongitude": -68.84, "eventDate": "2011-03-25T00:00:00.000+0000", "country": "Peru", "stateProvince": "Madre de Dios", "locality": "Peru, Madre de Dios province, Village: Palma Real; River: Madre de Dios; Biflod: Palma Real Grande; 37 km east of Puerto Maldonad. Tropical rain forest beginning on flooded plain changing to flooded terra firme forest. Dominated by Phenakospermum (underst"}, {"decimalLatitude": -12.49, "decimalLongitude": -68.81, "eventDate": "2011-03-26T00:00:00.000+0000", "country": "Peru", "stateProvince": "Madre de Dios", "locality": "Peru, Madre de Dios province, Village: Palma Real; River: Madre de Dios; 41 km east of Puerto Maldonado. Tropical flood-plain forest with large trees. Rather open canopy. Understory: mostly dominated by Heliconia and Marantaceae. Transect: HB415 Subunit:"}, {"decimalLatitude": -12.46, "decimalLongitude": -68.86, "eventDate": "2011-03-29T00:00:00.000+0000", "country": "Peru", "stateProvince": "Madre de Dios", "locality": "Peru, Madre de Dios province, Village: Palma Real; River: Madre de Dios; 37 km east of Puerto Maldonado. Tropical rain forest on terra firme. First half old growth with straight trunks and very open understory. Last half with many natural tree falls and g"}, {"decimalLatitude": -12.52, "decimalLongitude": -68.96, "eventDate": "2011-03-05T00:00:00.000+0000", "country": "Peru", "stateProvince": "Madre de Dios", "locality": "Peru, Madre de Dios province, Reservar Ecologica Taricaya, Madre de Dios river,  23 km north east of Puerto Maldonado, south on bank. Tropical flood-plain forest on flat ground with few wet depressions. Tree density low in some places. Regenerating forest"}, {"decimalLatitude": -12.52, "decimalLongitude": -68.97, "eventDate": "2011-03-15T00:00:00.000+0000", "country": "Peru", "stateProvince": "Madre de Dios", "locality": "Peru, Madre de Dios province, Reservar Ecologica Taricaya, Madre de Dios river,  23 km north east of Puerto Maldonado, south on bank. Tropical flood-plain forest on flat ground with few wet depressions - only parts of transect. Tree density low in some pl"}, {"decimalLatitude": -12.51, "decimalLongitude": -68.8, "eventDate": "2011-03-29T00:00:00.000+0000", "country": "Peru", "stateProvince": "Madre de Dios", "locality": "Peru, Madre de Dios province, Village: Palma Real; River: Madre de Dios; 41.5 km east of Puerto Maldonado. Tropical rain forest on terra firme. Looks like secondary forest but it has not been logged - many trees have fallen because of a storm. Transect: H"}, {"decimalLatitude": -12.52, "decimalLongitude": -69.04, "eventDate": "2011-03-21T00:00:00.000+0000", "country": "Peru", "stateProvince": "Madre de Dios", "locality": "Peru, Madre de Dios province, Village Inka Terra Lodge, Madre de Dios river, 16.5 km east of Puerto Maldonado, east on bank, Estacion Sientifica, Ita. Flat flood-plain forest with dry parts interrupted by inundated, elongate low sections. 25 m tall trees."}, {"decimalLatitude": -12.59, "decimalLongitude": -68.88, "eventDate": "2011-03-28T00:00:00.000+0000", "country": "Peru", "stateProvince": "Madre de Dios", "locality": "Peru, Madre de Dios province, Village: Palma Real; River: Madre de Dios; Biflod: Palma Real Grande; 32.5 km east of Puerto Maldonado. Tropical rain forest on terra firme. Many tall and thick trees. Rather open canopy and some natural disturbance from tree"}, {"decimalLatitude": -12.5, "decimalLongitude": -68.84, "eventDate": "2011-03-25T00:00:00.000+0000", "country": "Peru", "stateProvince": "Madre de Dios", "locality": "Peru, Madre de Dios province, Village: Palma Real; River: Madre de Dios; Biflod: Palma Real Grande; 37 km east of Puerto Maldonad. Tropical rain forest beginning on flooded plain changing to flooded terra firme forest. Dominated by Phenakospermum (underst"}, {"decimalLatitude": -12.46, "decimalLongitude": -68.86, "eventDate": "2011-03-29T00:00:00.000+0000", "country": "Peru", "stateProvince": "Madre de Dios", "locality": "Peru, Madre de Dios province, Village: Palma Real; River: Madre de Dios; 37 km east of Puerto Maldonado. Tropical rain forest on terra firme. First half old growth with straight trunks and very open understory. Last half with many natural tree falls and g"}, {"decimalLatitude": -12.52, "decimalLongitude": -69.04, "eventDate": "2011-03-21T00:00:00.000+0000", "country": "Peru", "stateProvince": "Madre de Dios", "locality": "Peru, Madre de Dios province, Village Inka Terra Lodge, Madre de Dios river, 16.5 km east of Puerto Maldonado, east on bank, Estacion Sientifica, Ita. Flat flood-plain forest with dry parts interrupted by inundated, elongate low sections. 25 m tall trees."}, {"decimalLatitude": -12.54, "decimalLongitude": -68.85, "eventDate": "2011-03-26T00:00:00.000+0000", "country": "Peru", "stateProvince": "Madre de Dios", "locality": "Peru, Madre de Dios province, Village: Palma Real; River: Madre de Dios; Biflod: Palma Real Grande; 35.5 km east of Puerto Maldonado. Tropical rain forest on terra firme. Many tall trees - up to 30 m; Dense understory; some natural disturbance from fallen"}, {"decimalLatitude": -12.5, "decimalLongitude": -68.84, "eventDate": "2011-03-25T00:00:00.000+0000", "country": "Peru", "stateProvince": "Madre de Dios", "locality": "Peru, Madre de Dios province, Village: Palma Real; River: Madre de Dios; Biflod: Palma Real Grande; 37 km east of Puerto Maldonad. Tropical rain forest beginning on flooded plain changing to flooded terra firme forest. Dominated by Phenakospermum (underst"}, {"decimalLatitude": -12.51, "decimalLongitude": -68.8, "eventDate": "2011-03-29T00:00:00.000+0000", "country": "Peru", "stateProvince": "Madre de Dios", "locality": "Peru, Madre de Dios province, Village: Palma Real; River: Madre de Dios; 41.5 km east of Puerto Maldonado. Tropical rain forest on terra firme. Looks like secondary forest but it has not been logged - many trees have fallen because of a storm. Transect: H"}, {"decimalLatitude": -12.59, "decimalLongitude": -68.88, "eventDate": "2011-03-28T00:00:00.000+0000", "country": "Peru", "stateProvince": "Madre de Dios", "locality": "Peru, Madre de Dios province, Village: Palma Real; River: Madre de Dios; Biflod: Palma Real Grande; 32.5 km east of Puerto Maldonado. Tropical rain forest on terra firme. Many tall and thick trees. Rather open canopy and some natural disturbance from tree"}, {"decimalLatitude": -12.53, "decimalLongitude": -68.85, "eventDate": "2011-03-26T00:00:00.000+0000", "country": "Peru", "stateProvince": "Madre de Dios", "locality": "Peru, Madre de Dios province, Village: Palma Real; River: Madre de Dios; Biflod: Palma Real Grande; 35.5 km east of Puerto Maldonado. Tropical rain forest on terra firme. Many tall trees - up to 30 m; Dense understory; some natural disturbance from fallen"}, {"decimalLatitude": -12.51, "decimalLongitude": -68.8, "eventDate": "2011-03-29T00:00:00.000+0000", "country": "Peru", "stateProvince": "Madre de Dios", "locality": "Peru, Madre de Dios province, Village: Palma Real; River: Madre de Dios; 41.5 km east of Puerto Maldonado. Tropical rain forest on terra firme. Looks like secondary forest but it has not been logged - many trees have fallen because of a storm. Transect: H"}, {"decimalLatitude": -12.49, "decimalLongitude": -68.99, "eventDate": "2011-03-22T00:00:00.000+0000", "country": "Peru", "stateProvince": "Madre de Dios", "locality": "Peru, Madre de Dios province, River: Gamitana & Agua Negra & Lo Boyo, 23.5 km east of Puerto Maldonado. Rather open forest. Trees 30 m high. Much low canopy inbetween.. Transect: HB409 Subunit: 67"}, {"decimalLatitude": -12.51, "decimalLongitude": -68.82, "eventDate": "2011-03-25T00:00:00.000+0000", "country": "Peru", "stateProvince": "Madre de Dios", "locality": "Peru, Madre de Dios province, Village: Palma Real; River: Madre de Dios; Biflod: Palma Real Grande; 39 km east of Puerto Maldonad. Primary tropical rain forest on terra firme with many tree falls and natural disturbance. Area used for extraction of Brasil"}, {"decimalLatitude": -12.49, "decimalLongitude": -68.81, "eventDate": "2011-03-26T00:00:00.000+0000", "country": "Peru", "stateProvince": "Madre de Dios", "locality": "Peru, Madre de Dios province, Village: Palma Real; River: Madre de Dios; 41 km east of Puerto Maldonado. Tropical flood-plain forest with large trees. Rather open canopy. Understory: mostly dominated by Heliconia and Marantaceae. Transect: HB415 Subunit:"}, {"decimalLatitude": -12.49, "decimalLongitude": -68.97, "eventDate": "2011-03-22T00:00:00.000+0000", "country": "Peru", "stateProvince": "Madre de Dios", "locality": "Peru, Madre de Dios province, River: Gamitana & Agua Negra & Lo Boyo, 25 km east of Puerto Maldonado. Tropical rain forest on high floodplain; apparently rarely inundated in the first half of transect and lower more wet in the last half. Forest heavily di"}, {"decimalLatitude": -12.56, "decimalLongitude": -68.87, "eventDate": "2011-03-28T00:00:00.000+0000", "country": "Peru", "stateProvince": "Madre de Dios", "locality": "Peru, Madre de Dios province, Village: Palma Real; River: Madre de Dios, Biflod: Pama Real Grande; 33.5 km east of Puerto Maldonado. Tropical rain forest on terra firme. Canopy up to 35 m high. Understory: dense, occasionally dominated by Aspidospermum. T"}, {"decimalLatitude": -12.5, "decimalLongitude": -68.85, "eventDate": "2011-03-25T00:00:00.000+0000", "country": "Peru", "stateProvince": "Madre de Dios", "locality": "Peru, Madre de Dios province, Village: Palma Real; River: Madre de Dios; Biflod: Palma Real Grande; 37 km east of Puerto Maldonad. Tropical rain forest beginning on flooded plain changing to flooded terra firme forest. Dominated by Phenakospermum (underst"}, {"decimalLatitude": -12.53, "decimalLongitude": -68.85, "eventDate": "2011-03-26T00:00:00.000+0000", "country": "Peru", "stateProvince": "Madre de Dios", "locality": "Peru, Madre de Dios province, Village: Palma Real; River: Madre de Dios; Biflod: Palma Real Grande; 35.5 km east of Puerto Maldonado. Tropical rain forest on terra firme. Many tall trees - up to 30 m; Dense understory; some natural disturbance from fallen"}, {"decimalLatitude": -12.49, "decimalLongitude": -68.98, "eventDate": "2011-03-22T00:00:00.000+0000", "country": "Peru", "stateProvince": "Madre de Dios", "locality": "Peru, Madre de Dios province, River: Gamitana & Agua Negra & Lo Boyo, 23.5 km east of Puerto Maldonado. Rather open forest. Trees 30 m high. Much low canopy inbetween.. Transect: HB409 Subunit: 14"}, {"decimalLatitude": -12.49, "decimalLongitude": -68.98, "eventDate": "2011-03-22T00:00:00.000+0000", "country": "Peru", "stateProvince": "Madre de Dios", "locality": "Peru, Madre de Dios province, River: Gamitana & Agua Negra & Lo Boyo, 23.5 km east of Puerto Maldonado. Rather open forest. Trees 30 m high. Much low canopy inbetween.. Transect: HB409 Subunit: 35"}, {"decimalLatitude": -12.53, "decimalLongitude": -68.85, "eventDate": "2011-03-26T00:00:00.000+0000", "country": "Peru", "stateProvince": "Madre de Dios", "locality": "Peru, Madre de Dios province, Village: Palma Real; River: Madre de Dios; Biflod: Palma Real Grande; 35.5 km east of Puerto Maldonado. Tropical rain forest on terra firme. Many tall trees - up to 30 m; Dense understory; some natural disturbance from fallen"}, {"decimalLatitude": -12.53, "decimalLongitude": -69.04, "eventDate": "2011-03-20T00:00:00.000+0000", "country": "Peru", "stateProvince": "Madre de Dios", "locality": "Peru, Madre de Dios province, Village Inka Terra Lodge, Madre de Dios river, 16 km east of Puerto Maldonado, east on bank, Estacion Sientifica, Ita. Dominant species: Astocaryum gratum, Understory: dense, shruby, Description: Flood-plain forest, undisturb"}, {"decimalLatitude": -12.46, "decimalLongitude": -68.86, "eventDate": "2011-03-29T00:00:00.000+0000", "country": "Peru", "stateProvince": "Madre de Dios", "locality": "Peru, Madre de Dios province, Village: Palma Real; River: Madre de Dios; 37 km east of Puerto Maldonado. Tropical rain forest on terra firme. First half old growth with straight trunks and very open understory. Last half with many natural tree falls and g"}, {"decimalLatitude": -12.49, "decimalLongitude": -68.98, "eventDate": "2011-03-22T00:00:00.000+0000", "country": "Peru", "stateProvince": "Madre de Dios", "locality": "Peru, Madre de Dios province, River: Gamitana & Agua Negra & Lo Boyo, 23.5 km east of Puerto Maldonado. Rather open forest. Trees 30 m high. Much low canopy inbetween.. Transect: HB409 Subunit: 18"}, {"decimalLatitude": -12.59, "decimalLongitude": -68.88, "eventDate": "2011-03-28T00:00:00.000+0000", "country": "Peru", "stateProvince": "Madre de Dios", "locality": "Peru, Madre de Dios province, Village: Palma Real; River: Madre de Dios; Biflod: Palma Real Grande; 32.5 km east of Puerto Maldonado. Tropical rain forest on terra firme. Many tall and thick trees. Rather open canopy and some natural disturbance from tree"}, {"decimalLatitude": -12.49, "decimalLongitude": -68.98, "eventDate": "2011-03-22T00:00:00.000+0000", "country": "Peru", "stateProvince": "Madre de Dios", "locality": "Peru, Madre de Dios province, River: Gamitana & Agua Negra & Lo Boyo, 23.5 km east of Puerto Maldonado. Rather open forest. Trees 30 m high. Much low canopy inbetween.. Transect: HB409 Subunit: 14"}, {"decimalLatitude": -12.51, "decimalLongitude": -68.82, "eventDate": "2011-03-25T00:00:00.000+0000", "country": "Peru", "stateProvince": "Madre de Dios", "locality": "Peru, Madre de Dios province, Village: Palma Real; River: Madre de Dios; Biflod: Palma Real Grande; 39 km east of Puerto Maldonad. Primary tropical rain forest on terra firme with many tree falls and natural disturbance. Area used for extraction of Brasil"}, {"decimalLatitude": -12.52, "decimalLongitude": -69.04, "eventDate": "2011-03-21T00:00:00.000+0000", "country": "Peru", "stateProvince": "Madre de Dios", "locality": "Peru, Madre de Dios province, Village Inka Terra Lodge, Madre de Dios river, 16.5 km east of Puerto Maldonado, east on bank, Estacion Sientifica, Ita. Flat flood-plain forest with dry parts interrupted by inundated, elongate low sections. 25 m tall trees."}, {"decimalLatitude": -12.53, "decimalLongitude": -68.85, "eventDate": "2011-03-26T00:00:00.000+0000", "country": "Peru", "stateProvince": "Madre de Dios", "locality": "Peru, Madre de Dios province, Village: Palma Real; River: Madre de Dios; Biflod: Palma Real Grande; 35.5 km east of Puerto Maldonado. Tropical rain forest on terra firme. Many tall trees - up to 30 m; Dense understory; some natural disturbance from fallen"}, {"decimalLatitude": -12.52, "decimalLongitude": -69.04, "eventDate": "2011-03-21T00:00:00.000+0000", "country": "Peru", "stateProvince": "Madre de Dios", "locality": "Peru, Madre de Dios province, Village Inka Terra Lodge, Madre de Dios river, 16.5 km east of Puerto Maldonado, east on bank, Estacion Sientifica, Ita. Flat flood-plain forest with dry parts interrupted by inundated, elongate low sections. 25 m tall trees."}, {"decimalLatitude": -12.52, "decimalLongitude": -68.97, "eventDate": "2011-03-15T00:00:00.000+0000", "country": "Peru", "stateProvince": "Madre de Dios", "locality": "Peru, Madre de Dios province, Reservar Ecologica Taricaya, Madre de Dios river,  23 km north east of Puerto Maldonado, south on bank. Tropical flood-plain forest on flat ground with few wet depressions - only parts of transect. Tree density low in some pl"}, {"decimalLatitude": -12.52, "decimalLongitude": -69.04, "eventDate": "2011-03-21T00:00:00.000+0000", "country": "Peru", "stateProvince": "Madre de Dios", "locality": "Peru, Madre de Dios province, Village Inka Terra Lodge, Madre de Dios river, 16.5 km east of Puerto Maldonado, east on bank, Estacion Sientifica, Ita. Flat flood-plain forest with dry parts interrupted by inundated, elongate low sections. 25 m tall trees."}, {"decimalLatitude": -12.46, "decimalLongitude": -68.86, "eventDate": "2011-03-29T00:00:00.000+0000", "country": "Peru", "stateProvince": "Madre de Dios", "locality": "Peru, Madre de Dios province, Village: Palma Real; River: Madre de Dios; 37 km east of Puerto Maldonado. Tropical rain forest on terra firme. First half old growth with straight trunks and very open understory. Last half with many natural tree falls and g"}, {"decimalLatitude": -12.59, "decimalLongitude": -68.88, "eventDate": "2011-03-28T00:00:00.000+0000", "country": "Peru", "stateProvince": "Madre de Dios", "locality": "Peru, Madre de Dios province, Village: Palma Real; River: Madre de Dios; Biflod: Palma Real Grande; 32.5 km east of Puerto Maldonado. Tropical rain forest on terra firme. Many tall and thick trees. Rather open canopy and some natural disturbance from tree"}, {"decimalLatitude": -12.52, "decimalLongitude": -68.99, "eventDate": "2011-03-21T00:00:00.000+0000", "country": "Peru", "stateProvince": "Madre de Dios", "locality": "Peru, Madre de Dios province, Reservar Ecologica Taricaya, Madre de Dios river,  22 km east of Puerto Maldonado, east on bank, Estania Sientifica, Ita. Tropical flood-plain forest on flat ground with few wet depressions. Tree density low in some places. U"}, {"decimalLatitude": -12.52, "decimalLongitude": -68.97, "eventDate": "2011-03-15T00:00:00.000+0000", "country": "Peru", "stateProvince": "Madre de Dios", "locality": "Peru, Madre de Dios province, Reservar Ecologica Taricaya, Madre de Dios river,  23 km north east of Puerto Maldonado, south on bank. Tropical flood-plain forest on flat ground with few wet depressions - only parts of transect. Tree density low in some pl"}, {"decimalLatitude": -12.49, "decimalLongitude": -68.98, "eventDate": "2011-03-22T00:00:00.000+0000", "country": "Peru", "stateProvince": "Madre de Dios", "locality": "Peru, Madre de Dios province, River: Gamitana & Agua Negra & Lo Boyo, 23.5 km east of Puerto Maldonado. Rather open forest. Trees 30 m high. Much low canopy inbetween.. Transect: HB409 Subunit: 4"}, {"decimalLatitude": -12.51, "decimalLongitude": -68.82, "eventDate": "2011-03-25T00:00:00.000+0000", "country": "Peru", "stateProvince": "Madre de Dios", "locality": "Peru, Madre de Dios province, Village: Palma Real; River: Madre de Dios; Biflod: Palma Real Grande; 39 km east of Puerto Maldonad. Primary tropical rain forest on terra firme with many tree falls and natural disturbance. Area used for extraction of Brasil"}, {"decimalLatitude": -12.49, "decimalLongitude": -68.99, "eventDate": "2011-03-22T00:00:00.000+0000", "country": "Peru", "stateProvince": "Madre de Dios", "locality": "Peru, Madre de Dios province, River: Gamitana & Agua Negra & Lo Boyo, 23.5 km east of Puerto Maldonado. Rather open forest. Trees 30 m high. Much low canopy inbetween.. Transect: HB409 Subunit: 93"}, {"decimalLatitude": -12.5, "decimalLongitude": -68.76, "eventDate": "2011-03-27T00:00:00.000+0000", "country": "Peru", "stateProvince": "Madre de Dios", "locality": "Peru, Madre de Dios province, Village: Palma Real; River: Madre de Dios; 46.5 km east of Puerto Maldonado. Tropical rain forest with some wet depressions. Naturally disturbed by fallen trees. Understory: dominated by Heliconia. Transect: HB417 Subunit: 50"}, {"decimalLatitude": -12.49, "decimalLongitude": -68.99, "eventDate": "2011-03-22T00:00:00.000+0000", "country": "Peru", "stateProvince": "Madre de Dios", "locality": "Peru, Madre de Dios province, River: Gamitana & Agua Negra & Lo Boyo, 23.5 km east of Puerto Maldonado. Rather open forest. Trees 30 m high. Much low canopy inbetween.. Transect: HB409 Subunit: 47"}, {"decimalLatitude": -12.49, "decimalLongitude": -68.97, "eventDate": "2011-03-22T00:00:00.000+0000", "country": "Peru", "stateProvince": "Madre de Dios", "locality": "Peru, Madre de Dios province, River: Gamitana & Agua Negra & Lo Boyo, 25 km east of Puerto Maldonado. Tropical rain forest on high floodplain; apparently rarely inundated in the first half of transect and lower more wet in the last half. Forest heavily di"}, {"decimalLatitude": -12.49, "decimalLongitude": -68.81, "eventDate": "2011-03-26T00:00:00.000+0000", "country": "Peru", "stateProvince": "Madre de Dios", "locality": "Peru, Madre de Dios province, Village: Palma Real; River: Madre de Dios; 41 km east of Puerto Maldonado. Tropical flood-plain forest with large trees. Rather open canopy. Understory: mostly dominated by Heliconia and Marantaceae. Transect: HB415 Subunit:"}, {"decimalLatitude": -12.52, "decimalLongitude": -69.04, "eventDate": "2011-03-21T00:00:00.000+0000", "country": "Peru", "stateProvince": "Madre de Dios", "locality": "Peru, Madre de Dios province, Village Inka Terra Lodge, Madre de Dios river, 16.5 km east of Puerto Maldonado, east on bank, Estacion Sientifica, Ita. Flat flood-plain forest with dry parts interrupted by inundated, elongate low sections. 25 m tall trees."}, {"decimalLatitude": -12.54, "decimalLongitude": -68.85, "eventDate": "2011-03-26T00:00:00.000+0000", "country": "Peru", "stateProvince": "Madre de Dios", "locality": "Peru, Madre de Dios province, Village: Palma Real; River: Madre de Dios; Biflod: Palma Real Grande; 35.5 km east of Puerto Maldonado. Tropical rain forest on terra firme. Many tall trees - up to 30 m; Dense understory; some natural disturbance from fallen"}, {"decimalLatitude": -12.5, "decimalLongitude": -68.84, "eventDate": "2011-03-25T00:00:00.000+0000", "country": "Peru", "stateProvince": "Madre de Dios", "locality": "Peru, Madre de Dios province, Village: Palma Real; River: Madre de Dios; Biflod: Palma Real Grande; 37 km east of Puerto Maldonad. Tropical rain forest beginning on flooded plain changing to flooded terra firme forest. Dominated by Phenakospermum (underst"}, {"decimalLatitude": -12.46, "decimalLongitude": -68.86, "eventDate": "2011-03-29T00:00:00.000+0000", "country": "Peru", "stateProvince": "Madre de Dios", "locality": "Peru, Madre de Dios province, Village: Palma Real; River: Madre de Dios; 37 km east of Puerto Maldonado. Tropical rain forest on terra firme. First half old growth with straight trunks and very open understory. Last half with many natural tree falls and g"}, {"decimalLatitude": -12.46, "decimalLongitude": -68.86, "eventDate": "2011-03-29T00:00:00.000+0000", "country": "Peru", "stateProvince": "Madre de Dios", "locality": "Peru, Madre de Dios province, Village: Palma Real; River: Madre de Dios; 37 km east of Puerto Maldonado. Tropical rain forest on terra firme. First half old growth with straight trunks and very open understory. Last half with many natural tree falls and g"}, {"decimalLatitude": -12.54, "decimalLongitude": -68.85, "eventDate": "2011-03-26T00:00:00.000+0000", "country": "Peru", "stateProvince": "Madre de Dios", "locality": "Peru, Madre de Dios province, Village: Palma Real; River: Madre de Dios; Biflod: Palma Real Grande; 35.5 km east of Puerto Maldonado. Tropical rain forest on terra firme. Many tall trees - up to 30 m; Dense understory; some natural disturbance from fallen"}, {"decimalLatitude": -12.59, "decimalLongitude": -68.88, "eventDate": "2011-03-28T00:00:00.000+0000", "country": "Peru", "stateProvince": "Madre de Dios", "locality": "Peru, Madre de Dios province, Village: Palma Real; River: Madre de Dios; Biflod: Palma Real Grande; 32.5 km east of Puerto Maldonado. Tropical rain forest on terra firme. Many tall and thick trees. Rather open canopy and some natural disturbance from tree"}, {"decimalLatitude": -12.59, "decimalLongitude": -68.88, "eventDate": "2011-03-28T00:00:00.000+0000", "country": "Peru", "stateProvince": "Madre de Dios", "locality": "Peru, Madre de Dios province, Village: Palma Real; River: Madre de Dios; Biflod: Palma Real Grande; 32.5 km east of Puerto Maldonado. Tropical rain forest on terra firme. Many tall and thick trees. Rather open canopy and some natural disturbance from tree"}, {"decimalLatitude": -12.51, "decimalLongitude": -68.8, "eventDate": "2011-03-29T00:00:00.000+0000", "country": "Peru", "stateProvince": "Madre de Dios", "locality": "Peru, Madre de Dios province, Village: Palma Real; River: Madre de Dios; 41.5 km east of Puerto Maldonado. Tropical rain forest on terra firme. Looks like secondary forest but it has not been logged - many trees have fallen because of a storm. Transect: H"}, {"decimalLatitude": -12.49, "decimalLongitude": -68.99, "eventDate": "2011-03-22T00:00:00.000+0000", "country": "Peru", "stateProvince": "Madre de Dios", "locality": "Peru, Madre de Dios province, River: Gamitana & Agua Negra & Lo Boyo, 23.5 km east of Puerto Maldonado. Rather open forest. Trees 30 m high. Much low canopy inbetween.. Transect: HB409 Subunit: 71"}, {"decimalLatitude": -12.49, "decimalLongitude": -68.97, "eventDate": "2011-03-22T00:00:00.000+0000", "country": "Peru", "stateProvince": "Madre de Dios", "locality": "Peru, Madre de Dios province, River: Gamitana & Agua Negra & Lo Boyo, 25 km east of Puerto Maldonado. Tropical rain forest on high floodplain; apparently rarely inundated in the first half of transect and lower more wet in the last half. Forest heavily di"}, {"decimalLatitude": -12.53, "decimalLongitude": -68.85, "eventDate": "2011-03-26T00:00:00.000+0000", "country": "Peru", "stateProvince": "Madre de Dios", "locality": "Peru, Madre de Dios province, Village: Palma Real; River: Madre de Dios; Biflod: Palma Real Grande; 35.5 km east of Puerto Maldonado. Tropical rain forest on terra firme. Many tall trees - up to 30 m; Dense understory; some natural disturbance from fallen"}, {"decimalLatitude": -12.46, "decimalLongitude": -68.86, "eventDate": "2011-03-29T00:00:00.000+0000", "country": "Peru", "stateProvince": "Madre de Dios", "locality": "Peru, Madre de Dios province, Village: Palma Real; River: Madre de Dios; 37 km east of Puerto Maldonado. Tropical rain forest on terra firme. First half old growth with straight trunks and very open understory. Last half with many natural tree falls and g"}, {"decimalLatitude": -12.52, "decimalLongitude": -68.99, "eventDate": "2011-03-21T00:00:00.000+0000", "country": "Peru", "stateProvince": "Madre de Dios", "locality": "Peru, Madre de Dios province, Reservar Ecologica Taricaya, Madre de Dios river,  22 km east of Puerto Maldonado, east on bank, Estania Sientifica, Ita. Tropical flood-plain forest on flat ground with few wet depressions. Tree density low in some places. U"}, {"decimalLatitude": -12.52, "decimalLongitude": -68.99, "eventDate": "2011-03-21T00:00:00.000+0000", "country": "Peru", "stateProvince": "Madre de Dios", "locality": "Peru, Madre de Dios province, Reservar Ecologica Taricaya, Madre de Dios river,  22 km east of Puerto Maldonado, east on bank, Estania Sientifica, Ita. Tropical flood-plain forest on flat ground with few wet depressions. Tree density low in some places. U"}, {"decimalLatitude": -12.54, "decimalLongitude": -68.85, "eventDate": "2011-03-26T00:00:00.000+0000", "country": "Peru", "stateProvince": "Madre de Dios", "locality": "Peru, Madre de Dios province, Village: Palma Real; River: Madre de Dios; Biflod: Palma Real Grande; 35.5 km east of Puerto Maldonado. Tropical rain forest on terra firme. Many tall trees - up to 30 m; Dense understory; some natural disturbance from fallen"}, {"decimalLatitude": -12.46, "decimalLongitude": -68.86, "eventDate": "2011-03-29T00:00:00.000+0000", "country": "Peru", "stateProvince": "Madre de Dios", "locality": "Peru, Madre de Dios province, Village: Palma Real; River: Madre de Dios; 37 km east of Puerto Maldonado. Tropical rain forest on terra firme. First half old growth with straight trunks and very open understory. Last half with many natural tree falls and g"}, {"decimalLatitude": -12.5, "decimalLongitude": -68.84, "eventDate": "2011-03-25T00:00:00.000+0000", "country": "Peru", "stateProvince": "Madre de Dios", "locality": "Peru, Madre de Dios province, Village: Palma Real; River: Madre de Dios; Biflod: Palma Real Grande; 37 km east of Puerto Maldonad. Tropical rain forest beginning on flooded plain changing to flooded terra firme forest. Dominated by Phenakospermum (underst"}, {"decimalLatitude": -12.5, "decimalLongitude": -68.84, "eventDate": "2011-03-25T00:00:00.000+0000", "country": "Peru", "stateProvince": "Madre de Dios", "locality": "Peru, Madre de Dios province, Village: Palma Real; River: Madre de Dios; Biflod: Palma Real Grande; 37 km east of Puerto Maldonad. Tropical rain forest beginning on flooded plain changing to flooded terra firme forest. Dominated by Phenakospermum (underst"}, {"decimalLatitude": -12.53, "decimalLongitude": -69.05, "eventDate": "2011-03-20T00:00:00.000+0000", "country": "Peru", "stateProvince": "Madre de Dios", "locality": "Peru, Madre de Dios province, Village Inka Terra Lodge, Madre de Dios river, 16 km east of Puerto Maldonado, east on bank, Estacion Sientifica, Ita. Dominant species: Astocaryum gratum, Understory: dense, shruby, Description: Flood-plain forest, undisturb"}, {"decimalLatitude": -12.53, "decimalLongitude": -69.05, "eventDate": "2011-03-20T00:00:00.000+0000", "country": "Peru", "stateProvince": "Madre de Dios", "locality": "Peru, Madre de Dios province, Village Inka Terra Lodge, Madre de Dios river, 16 km east of Puerto Maldonado, east on bank, Estacion Sientifica, Ita. Dominant species: Astocaryum gratum, Understory: dense, shruby, Description: Flood-plain forest, undisturb"}, {"decimalLatitude": -12.5, "decimalLongitude": -68.84, "eventDate": "2011-03-25T00:00:00.000+0000", "country": "Peru", "stateProvince": "Madre de Dios", "locality": "Peru, Madre de Dios province, Village: Palma Real; River: Madre de Dios; Biflod: Palma Real Grande; 37 km east of Puerto Maldonad. Tropical rain forest beginning on flooded plain changing to flooded terra firme forest. Dominated by Phenakospermum (underst"}, {"decimalLatitude": -12.59, "decimalLongitude": -68.88, "eventDate": "2011-03-28T00:00:00.000+0000", "country": "Peru", "stateProvince": "Madre de Dios", "locality": "Peru, Madre de Dios province, Village: Palma Real; River: Madre de Dios; Biflod: Palma Real Grande; 32.5 km east of Puerto Maldonado. Tropical rain forest on terra firme. Many tall and thick trees. Rather open canopy and some natural disturbance from tree"}, {"decimalLatitude": -12.52, "decimalLongitude": -69.04, "eventDate": "2011-03-21T00:00:00.000+0000", "country": "Peru", "stateProvince": "Madre de Dios", "locality": "Peru, Madre de Dios province, Village Inka Terra Lodge, Madre de Dios river, 16.5 km east of Puerto Maldonado, east on bank, Estacion Sientifica, Ita. Flat flood-plain forest with dry parts interrupted by inundated, elongate low sections. 25 m tall trees."}, {"decimalLatitude": -12.52, "decimalLongitude": -68.97, "eventDate": "2011-03-15T00:00:00.000+0000", "country": "Peru", "stateProvince": "Madre de Dios", "locality": "Peru, Madre de Dios province, Reservar Ecologica Taricaya, Madre de Dios river,  23 km north east of Puerto Maldonado, south on bank. Tropical flood-plain forest on flat ground with few wet depressions - only parts of transect. Tree density low in some pl"}, {"decimalLatitude": -12.52, "decimalLongitude": -68.97, "eventDate": "2011-03-15T00:00:00.000+0000", "country": "Peru", "stateProvince": "Madre de Dios", "locality": "Peru, Madre de Dios province, Reservar Ecologica Taricaya, Madre de Dios river,  23 km north east of Puerto Maldonado, south on bank. Tropical flood-plain forest on flat ground with few wet depressions - only parts of transect. Tree density low in some pl"}, {"decimalLatitude": -12.54, "decimalLongitude": -68.85, "eventDate": "2011-03-26T00:00:00.000+0000", "country": "Peru", "stateProvince": "Madre de Dios", "locality": "Peru, Madre de Dios province, Village: Palma Real; River: Madre de Dios; Biflod: Palma Real Grande; 35.5 km east of Puerto Maldonado. Tropical rain forest on terra firme. Many tall trees - up to 30 m; Dense understory; some natural disturbance from fallen"}, {"decimalLatitude": -12.53, "decimalLongitude": -68.85, "eventDate": "2011-03-26T00:00:00.000+0000", "country": "Peru", "stateProvince": "Madre de Dios", "locality": "Peru, Madre de Dios province, Village: Palma Real; River: Madre de Dios; Biflod: Palma Real Grande; 35.5 km east of Puerto Maldonado. Tropical rain forest on terra firme. Many tall trees - up to 30 m; Dense understory; some natural disturbance from fallen"}, {"decimalLatitude": -12.59, "decimalLongitude": -68.88, "eventDate": "2011-03-28T00:00:00.000+0000", "country": "Peru", "stateProvince": "Madre de Dios", "locality": "Peru, Madre de Dios province, Village: Palma Real; River: Madre de Dios; Biflod: Palma Real Grande; 32.5 km east of Puerto Maldonado. Tropical rain forest on terra firme. Many tall and thick trees. Rather open canopy and some natural disturbance from tree"}, {"decimalLatitude": -12.52, "decimalLongitude": -69.04, "eventDate": "2011-03-21T00:00:00.000+0000", "country": "Peru", "stateProvince": "Madre de Dios", "locality": "Peru, Madre de Dios province, Village Inka Terra Lodge, Madre de Dios river, 16.5 km east of Puerto Maldonado, east on bank, Estacion Sientifica, Ita. Flat flood-plain forest with dry parts interrupted by inundated, elongate low sections. 25 m tall trees."}, {"decimalLatitude": -12.49, "decimalLongitude": -68.81, "eventDate": "2011-03-26T00:00:00.000+0000", "country": "Peru", "stateProvince": "Madre de Dios", "locality": "Peru, Madre de Dios province, Village: Palma Real; River: Madre de Dios; 41 km east of Puerto Maldonado. Tropical flood-plain forest with large trees. Rather open canopy. Understory: mostly dominated by Heliconia and Marantaceae. Transect: HB415 Subunit:"}, {"decimalLatitude": -12.52, "decimalLongitude": -69.04, "eventDate": "2011-03-21T00:00:00.000+0000", "country": "Peru", "stateProvince": "Madre de Dios", "locality": "Peru, Madre de Dios province, Village Inka Terra Lodge, Madre de Dios river, 16.5 km east of Puerto Maldonado, east on bank, Estacion Sientifica, Ita. Flat flood-plain forest with dry parts interrupted by inundated, elongate low sections. 25 m tall trees."}, {"decimalLatitude": -12.49, "decimalLongitude": -68.97, "eventDate": "2011-03-22T00:00:00.000+0000", "country": "Peru", "stateProvince": "Madre de Dios", "locality": "Peru, Madre de Dios province, River: Gamitana & Agua Negra & Lo Boyo, 25 km east of Puerto Maldonado. Tropical rain forest on high floodplain; apparently rarely inundated in the first half of transect and lower more wet in the last half. Forest heavily di"}, {"decimalLatitude": -12.52, "decimalLongitude": -68.97, "eventDate": "2011-03-15T00:00:00.000+0000", "country": "Peru", "stateProvince": "Madre de Dios", "locality": "Peru, Madre de Dios province, Reservar Ecologica Taricaya, Madre de Dios river,  23 km north east of Puerto Maldonado, south on bank. Tropical flood-plain forest on flat ground with few wet depressions - only parts of transect. Tree density low in some pl"}, {"decimalLatitude": -12.51, "decimalLongitude": -68.82, "eventDate": "2011-03-25T00:00:00.000+0000", "country": "Peru", "stateProvince": "Madre de Dios", "locality": "Peru, Madre de Dios province, Village: Palma Real; River: Madre de Dios; Biflod: Palma Real Grande; 39 km east of Puerto Maldonad. Primary tropical rain forest on terra firme with many tree falls and natural disturbance. Area used for extraction of Brasil"}, {"decimalLatitude": -12.5, "decimalLongitude": -68.84, "eventDate": "2011-03-25T00:00:00.000+0000", "country": "Peru", "stateProvince": "Madre de Dios", "locality": "Peru, Madre de Dios province, Village: Palma Real; River: Madre de Dios; Biflod: Palma Real Grande; 37 km east of Puerto Maldonad. Tropical rain forest beginning on flooded plain changing to flooded terra firme forest. Dominated by Phenakospermum (underst"}, {"decimalLatitude": -12.51, "decimalLongitude": -68.82, "eventDate": "2011-03-25T00:00:00.000+0000", "country": "Peru", "stateProvince": "Madre de Dios", "locality": "Peru, Madre de Dios province, Village: Palma Real; River: Madre de Dios; Biflod: Palma Real Grande; 39 km east of Puerto Maldonad. Primary tropical rain forest on terra firme with many tree falls and natural disturbance. Area used for extraction of Brasil"}, {"decimalLatitude": -12.52, "decimalLongitude": -68.97, "eventDate": "2011-03-15T00:00:00.000+0000", "country": "Peru", "stateProvince": "Madre de Dios", "locality": "Peru, Madre de Dios province, Reservar Ecologica Taricaya, Madre de Dios river,  23 km north east of Puerto Maldonado, south on bank. Tropical flood-plain forest on flat ground with few wet depressions - only parts of transect. Tree density low in some pl"}, {"decimalLatitude": -12.49, "decimalLongitude": -68.99, "eventDate": "2011-03-22T00:00:00.000+0000", "country": "Peru", "stateProvince": "Madre de Dios", "locality": "Peru, Madre de Dios province, River: Gamitana & Agua Negra & Lo Boyo, 23.5 km east of Puerto Maldonado. Rather open forest. Trees 30 m high. Much low canopy inbetween.. Transect: HB409 Subunit: 60"}, {"decimalLatitude": -12.51, "decimalLongitude": -68.82, "eventDate": "2011-03-25T00:00:00.000+0000", "country": "Peru", "stateProvince": "Madre de Dios", "locality": "Peru, Madre de Dios province, Village: Palma Real; River: Madre de Dios; Biflod: Palma Real Grande; 39 km east of Puerto Maldonad. Primary tropical rain forest on terra firme with many tree falls and natural disturbance. Area used for extraction of Brasil"},